Hospital Name,Hospital Lat,Hospital Lon,Hospital Address,Beds Available,Doctors Available,Traffic Speed (km/h),Traffic Incident,Traffic Density,Traffic Severity Index,Weather Condition,Route Distance (km),Route Time Without Traffic (min),Route Time With Traffic (min),Route Start Time,Route End Time,Priority Level
"Dhanraj Hospital, Karpaga Vinayakar Koil Street, CMWSSB Division 160, Ward 160, Zone 12 Alandur, Chengalpattu, Chennai, Tamil Nadu, 600016, India",13.0017797,80.2033269,"Dhanraj Hospital, Karpaga Vinayakar Koil Street, CMWSSB Division 160, Ward 160, Zone 12 Alandur, Chengalpattu, Chennai, Tamil Nadu, 600016, India",18,9,25,Yes,Low,20,Fog,14.90042361412201,22.350635421183014,35.506325638920515,2025-02-13 08:53:17.679685,2025-02-13 09:28:48.059223,High
"Cu Shah Sankara Netralaya, Station Road, CMWSSB Division 201, St. Thomas Mount Cantonment, Zone 12 Alandur, St.Thomas Mount-Pallavaram Cantonment Board, Kanchipuram, Chennai, Tamil Nadu, 600016, India",13.0012687,80.2001283,"Cu Shah Sankara Netralaya, Station Road, CMWSSB Division 201, St. Thomas Mount Cantonment, Zone 12 Alandur, St.Thomas Mount-Pallavaram Cantonment Board, Kanchipuram, Chennai, Tamil Nadu, 600016, India",21,9,35,No,High,78,Rain,6.55760518972331,9.836407784584965,16.83023731831028,2025-02-13 09:31:17.679685,2025-02-13 09:48:07.493924,Low
"S.S. Hospital, Sowri street, CMWSSB Division 160, Ward 160, Zone 12 Alandur, Chengalpattu, Chennai, Tamil Nadu, 600016, India",13.0036449,80.2030844,"S.S. Hospital, Sowri street, CMWSSB Division 160, Ward 160, Zone 12 Alandur, Chengalpattu, Chennai, Tamil Nadu, 600016, India",11,9,30,No,Moderate,23,Rain,12.082426352526463,18.123639528789695,28.86690142864017,2025-02-13 09:32:17.679685,2025-02-13 10:01:09.693771,High
"Government Hospital Alandur, Vishnu Street, CMWSSB Division 160, Ward 160, Zone 12 Alandur, St. Thomas Mount Cantonment, Alandur, Chennai, Tamil Nadu, 600016, India",13.0048164,80.2025432,"Government Hospital Alandur, Vishnu Street, CMWSSB Division 160, Ward 160, Zone 12 Alandur, St. Thomas Mount Cantonment, Alandur, Chennai, Tamil Nadu, 600016, India",17,5,25,Yes,Low,20,Rain,5.934170147130505,8.901255220695758,15.107271789122866,2025-02-13 09:29:17.679685,2025-02-13 09:44:24.115992,High
"Kaanthi Makapperu Hospital, Sowri street, CMWSSB Division 160, Ward 160, Zone 12 Alandur, Chengalpattu, Chennai, Tamil Nadu, 600016, India",13.003406,80.2063632,"Kaanthi Makapperu Hospital, Sowri street, CMWSSB Division 160, Ward 160, Zone 12 Alandur, Chengalpattu, Chennai, Tamil Nadu, 600016, India",28,8,30,No,Moderate,10,Snow,17.802018517359038,26.703027776038557,38.35513109692789,2025-02-13 08:45:17.679685,2025-02-13 09:23:38.987551,Low
"Jaya Sri Hospital, MKN Road, CMWSSB Division 160, Ward 160, Zone 12 Alandur, St.Thomas Mount-Pallavaram Cantonment Board, Chengalpattu, Chennai, Tamil Nadu, 600016, India",13.0027883,80.207025,"Jaya Sri Hospital, MKN Road, CMWSSB Division 160, Ward 160, Zone 12 Alandur, St.Thomas Mount-Pallavaram Cantonment Board, Chengalpattu, Chennai, Tamil Nadu, 600016, India",16,9,20,Yes,Moderate,12,Fog,6.261623062349603,9.392434593524404,23.44793597346332,2025-02-13 08:50:17.679685,2025-02-13 09:13:44.555843,Low
"G. R. Hospital & Fertility Centre, City Link Road, CMWSSB Division 160, Zone 13 Adyar, Zone 12 Alandur, Alandur, Chennai, Tamil Nadu, 600088, India",12.9952982,80.2068955,"G. R. Hospital & Fertility Centre, City Link Road, CMWSSB Division 160, Zone 13 Adyar, Zone 12 Alandur, Alandur, Chennai, Tamil Nadu, 600088, India",28,10,20,No,Low,13,Snow,18.82680483426775,28.24020725140163,36.5765625651864,2025-02-13 09:31:17.679685,2025-02-13 10:07:52.273439,Low
"Balaji Hospital (P) Ltd, Anna Salai (Mount Road), Ward 170, Zone 13 Adyar, Alandur, Chennai, Tamil Nadu, 600032, India",13.00738175,80.20608622840193,"Balaji Hospital (P) Ltd, Anna Salai (Mount Road), Ward 170, Zone 13 Adyar, Alandur, Chennai, Tamil Nadu, 600032, India",30,7,35,Yes,Moderate,27,Fog,8.820023709190357,13.230035563785535,25.386857141211067,2025-02-13 09:05:17.679685,2025-02-13 09:30:40.891113,Low
"SP Hospital, Mount - Medavakkam Road, CMWSSB Division 163, Ward 163, Zone 12 Alandur, Kanchipuram, Chennai, Tamil Nadu, 600088, India",12.9933638,80.2009134,"SP Hospital, Mount - Medavakkam Road, CMWSSB Division 163, Ward 163, Zone 12 Alandur, Kanchipuram, Chennai, Tamil Nadu, 600088, India",19,9,20,Yes,Moderate,15,Rain,12.747271405153498,19.120907107730247,32.383571069989955,2025-02-13 09:17:17.679685,2025-02-13 09:49:40.693949,Low
"Ponmalligai Hospital Pvt Ltd, Kakkan Nagar Main Road, Ward 177, Zone 13 Adyar, Zone 12 Alandur, Kanchipuram, Chennai, Tamil Nadu, 600088, India",12.9925116,80.2061465,"Ponmalligai Hospital Pvt Ltd, Kakkan Nagar Main Road, Ward 177, Zone 13 Adyar, Zone 12 Alandur, Kanchipuram, Chennai, Tamil Nadu, 600088, India",18,10,20,Yes,Moderate,18,Snow,11.938595505128719,17.90789325769308,29.867888114690746,2025-02-13 09:01:17.679685,2025-02-13 09:31:09.752972,Medium
"K P Childrens Hospital And Neuro Centre, Mount - Medavakkam Road, CMWSSB Division 163, Ward 163, Zone 12 Alandur, Kanchipuram, Chennai, Tamil Nadu, 600088, India",12.9911179,80.1986745,"K P Childrens Hospital And Neuro Centre, Mount - Medavakkam Road, CMWSSB Division 163, Ward 163, Zone 12 Alandur, Kanchipuram, Chennai, Tamil Nadu, 600088, India",16,5,20,Yes,Moderate,21,Fog,8.738726787636157,13.108090181454235,24.253867586474797,2025-02-13 09:13:17.679685,2025-02-13 09:37:32.911740,Low
"Cantonment General Hospital, Magazine Road, CMWSSB Division 201, St. Thomas Mount Cantonment, Zone 12 Alandur, St.Thomas Mount-Pallavaram Cantonment Board, Alandur, Chennai, Tamil Nadu, 600016, India",13.0096653,80.19501478878405,"Cantonment General Hospital, Magazine Road, CMWSSB Division 201, St. Thomas Mount Cantonment, Zone 12 Alandur, St.Thomas Mount-Pallavaram Cantonment Board, Alandur, Chennai, Tamil Nadu, 600016, India",24,10,35,Yes,Moderate,27,Fog,10.080718973142854,15.121078459714282,21.94760789288231,2025-02-13 09:13:17.679685,2025-02-13 09:35:14.536159,Low
"Magazine Road, CMWSSB Division 201, St. Thomas Mount Cantonment, Zone 12 Alandur, St.Thomas Mount-Pallavaram Cantonment Board, Alandur, Chennai, Tamil Nadu, 600016, India",13.009781,80.1949734,"Magazine Road, CMWSSB Division 201, St. Thomas Mount Cantonment, Zone 12 Alandur, St.Thomas Mount-Pallavaram Cantonment Board, Alandur, Chennai, Tamil Nadu, 600016, India",11,8,40,Yes,High,54,Snow,14.021143058125244,21.031714587187864,26.57379160343399,2025-02-13 08:54:17.679685,2025-02-13 09:20:52.107181,Medium
"Rathna Hospital, St Patricks Church Road, CMWSSB Division 201, St. Thomas Mount Cantonment, Zone 12 Alandur, St. Thomas Mount Cantonment, Chengalpattu, Chennai, Tamil Nadu, 600016, India",13.0087475,80.1937172,"Rathna Hospital, St Patricks Church Road, CMWSSB Division 201, St. Thomas Mount Cantonment, Zone 12 Alandur, St. Thomas Mount Cantonment, Chengalpattu, Chennai, Tamil Nadu, 600016, India",21,8,25,No,High,77,Rain,5.272473442767387,7.90871016415108,18.52656492589261,2025-02-13 08:58:17.680676,2025-02-13 09:16:49.274572,Low
"St. Thomas Hospital, Defence Colony Road, CMWSSB Division 201, St. Thomas Mount Cantonment, St.Thomas Mount-Pallavaram Cantonment Board, Kanchipuram, Chennai, Tamil Nadu, 600016, India",13.0122733,80.196428,"St. Thomas Hospital, Defence Colony Road, CMWSSB Division 201, St. Thomas Mount Cantonment, St.Thomas Mount-Pallavaram Cantonment Board, Kanchipuram, Chennai, Tamil Nadu, 600016, India",53,23,25,No,Moderate,17,Rain,17.279026966274287,25.91854044941143,38.02600951569844,2025-02-13 09:05:17.680676,2025-02-13 09:43:19.241247,Medium
"Military Hospital, 2nd Seven Wells Street, CMWSSB Division 158, Ward 158, Zone 12 Alandur, Alandur, Chennai, Tamil Nadu, 600016, India",13.0117736,80.1941708,"Military Hospital, 2nd Seven Wells Street, CMWSSB Division 158, Ward 158, Zone 12 Alandur, Alandur, Chennai, Tamil Nadu, 600016, India",15,5,25,No,High,33,Clear,11.850166172516872,17.775249258775307,28.540278348899225,2025-02-13 08:55:17.680676,2025-02-13 09:23:50.097377,Low
"BM Hospital, 5th Main Road, CMWSSB Division 162, Ward 162, Zone 12 Alandur, Alandur, Chennai, Tamil Nadu, 600114, India",12.9887616,80.1904116,"BM Hospital, 5th Main Road, CMWSSB Division 162, Ward 162, Zone 12 Alandur, Alandur, Chennai, Tamil Nadu, 600114, India",18,7,30,Yes,High,39,Snow,7.273413601525368,10.910120402288053,16.354395155051122,2025-02-13 09:42:17.680676,2025-02-13 09:58:38.944385,High
"Dr Bala's Skin clinic, 14, Vanalar Street, CMWSSB Division 165, Ward 165, Zone 12 Alandur, Alandur, Chennai, Tamil Nadu, 600088, India",12.9831959,80.2013573,"Dr Bala's Skin clinic, 14, Vanalar Street, CMWSSB Division 165, Ward 165, Zone 12 Alandur, Alandur, Chennai, Tamil Nadu, 600088, India",29,8,20,No,Moderate,26,Clear,19.218305982908483,28.827458974362724,35.218415954912956,2025-02-13 08:58:17.680676,2025-02-13 09:33:30.785633,Medium
"HOSPICE, Nagi Reddy thottam Garden Rd, Labour Colony, CMWSSB Division 170, Zone 13 Adyar, Chennai, Tamil Nadu, 600001, India",13.015872900000002,80.21345943331696,"HOSPICE, Nagi Reddy thottam Garden Rd, Labour Colony, CMWSSB Division 170, Zone 13 Adyar, Chennai, Tamil Nadu, 600001, India",11,8,40,Yes,High,76,Clear,7.704291993401977,11.556437990102966,19.50274840920101,2025-02-13 09:17:17.680676,2025-02-13 09:36:47.845581,Medium
"Military Hospital, Defence Colony 1st Avenue, CMWSSB Division 201, St. Thomas Mount Cantonment, St.Thomas Mount-Pallavaram Cantonment Board, Alandur, Chennai, Tamil Nadu, 600016, India",13.0194622,80.1972947,"Military Hospital, Defence Colony 1st Avenue, CMWSSB Division 201, St. Thomas Mount Cantonment, St.Thomas Mount-Pallavaram Cantonment Board, Alandur, Chennai, Tamil Nadu, 600016, India",15,6,20,No,Moderate,24,Fog,18.064258444049266,27.0963876660739,37.2406423915363,2025-02-13 08:54:17.680676,2025-02-13 09:31:32.119219,High
"Rotary Central Margaret Sidney Hospital, 2nd Main Road, CMWSSB Division 165, Ward 165, Zone 12 Alandur, Alandur, Chennai, Tamil Nadu, 600001, India",12.9837958,80.1932105,"Rotary Central Margaret Sidney Hospital, 2nd Main Road, CMWSSB Division 165, Ward 165, Zone 12 Alandur, Alandur, Chennai, Tamil Nadu, 600001, India",28,7,25,No,Low,19,Clear,12.74335857634757,19.115037864521355,29.451641208973832,2025-02-13 08:48:17.680676,2025-02-13 09:17:44.779149,High
"Hariharan Hospital, 29th Street, CMWSSB Division 164, Ward 164, Zone 12 Alandur, Alandur, Chennai, Tamil Nadu, 600061, India",12.9847145,80.1905906,"Hariharan Hospital, 29th Street, CMWSSB Division 164, Ward 164, Zone 12 Alandur, Alandur, Chennai, Tamil Nadu, 600061, India",10,8,35,No,Low,29,Rain,6.3992230564420165,9.598834584663024,16.92068952770301,2025-02-13 08:50:17.680676,2025-02-13 09:07:12.922048,High
"Bharath Hospital, 72, Nanganallur 1st Main Road, CMWSSB Division 165, Ward 165, Zone 12 Alandur, Alandur, Chennai, Tamil Nadu, 600061, India",12.9823277,80.1937835,"Bharath Hospital, 72, Nanganallur 1st Main Road, CMWSSB Division 165, Ward 165, Zone 12 Alandur, Alandur, Chennai, Tamil Nadu, 600061, India",20,5,30,No,Moderate,22,Clear,10.135342726139651,15.203014089209477,23.47977972625462,2025-02-13 08:54:17.680676,2025-02-13 09:17:46.467460,Low
"Prime Care Nursing Home, Brindavan Nagar Main Road, CMWSSB Division 165, Ward 165, Zone 12 Alandur, Alandur, Chennai, Tamil Nadu, 600042, India",12.9799192,80.2044922,"Prime Care Nursing Home, Brindavan Nagar Main Road, CMWSSB Division 165, Ward 165, Zone 12 Alandur, Alandur, Chennai, Tamil Nadu, 600042, India",20,6,40,Yes,Low,29,Fog,15.251796817512687,22.877695226269033,37.54537654175508,2025-02-13 08:49:17.680676,2025-02-13 09:26:50.403269,Medium
"Dr. Janardhanan Multispeciality Dental Clinic, Nanganallur 4th Main Road, CMWSSB Division 164, Ward 164, Zone 12 Alandur, Alandur, Chennai, Tamil Nadu, 600114, India",12.9842586,80.1886083,"Dr. Janardhanan Multispeciality Dental Clinic, Nanganallur 4th Main Road, CMWSSB Division 164, Ward 164, Zone 12 Alandur, Alandur, Chennai, Tamil Nadu, 600114, India",11,8,40,Yes,High,39,Fog,13.154380645975229,19.731570968962842,28.080479625918287,2025-02-13 09:25:17.680676,2025-02-13 09:53:22.509454,Medium
"Qure Ortho Clinic, Physiotherapy, X Ray & Pharmacy, Brindavan Nagar Main Road, CMWSSB Division 165, Ward 165, Zone 12 Alandur, Alandur, Chennai, Tamil Nadu, 600042, India",12.9794,80.2043658,"Qure Ortho Clinic, Physiotherapy, X Ray & Pharmacy, Brindavan Nagar Main Road, CMWSSB Division 165, Ward 165, Zone 12 Alandur, Alandur, Chennai, Tamil Nadu, 600042, India",25,8,35,Yes,Moderate,30,Snow,17.315426094726174,25.97313914208926,32.5035863922157,2025-02-13 09:04:17.680676,2025-02-13 09:36:47.895860,High
"Xcellent Care Hospital, RajaLaxmi Nagar 7th Cross Street, RajaLaxmi Nagar, CMWSSB Division 178, Zone 13 Adyar, Chennai, Tamil Nadu, 600042, India",12.9855867,80.21842695262237,"Xcellent Care Hospital, RajaLaxmi Nagar 7th Cross Street, RajaLaxmi Nagar, CMWSSB Division 178, Zone 13 Adyar, Chennai, Tamil Nadu, 600042, India",28,6,40,Yes,Moderate,30,Fog,14.761737452727825,22.14260617909174,34.17287050109125,2025-02-13 09:19:17.680676,2025-02-13 09:53:28.052906,Medium
"Sri Venkateshwara`s C.M. Hospital, Nanganallur 5th Main Road, CMWSSB Division 167, Ward 167, Zone 12 Alandur, Alandur, Chennai, Tamil Nadu, 600061, India",12.9857914,80.185987,"Sri Venkateshwara`s C.M. Hospital, Nanganallur 5th Main Road, CMWSSB Division 167, Ward 167, Zone 12 Alandur, Alandur, Chennai, Tamil Nadu, 600061, India",21,10,40,Yes,Low,26,Fog,8.185737456090404,12.278606184135606,21.849414987036297,2025-02-13 08:44:17.680676,2025-02-13 09:06:08.645575,Medium
"Dr.Agarwal's Eye Hospital Ltd, Nanganallur, Nanganallur 1st Main Road, CMWSSB Division 164, Ward 164, Zone 12 Alandur, Kanchipuram, Chennai, Tamil Nadu, 600061, India",12.9827844,80.1891661,"Dr.Agarwal's Eye Hospital Ltd, Nanganallur, Nanganallur 1st Main Road, CMWSSB Division 164, Ward 164, Zone 12 Alandur, Kanchipuram, Chennai, Tamil Nadu, 600061, India",29,8,35,Yes,Moderate,18,Fog,7.918909001848901,11.87836350277335,22.016861460545964,2025-02-13 09:06:17.680676,2025-02-13 09:28:18.692364,Medium
"Helios Hospital Pvt Ltd, RajaLaxmi Nagar 7th Cross Street, RajaLaxmi Nagar, CMWSSB Division 178, Zone 13 Adyar, Chennai, Tamil Nadu, 600042, India",12.9855882,80.2189144,"Helios Hospital Pvt Ltd, RajaLaxmi Nagar 7th Cross Street, RajaLaxmi Nagar, CMWSSB Division 178, Zone 13 Adyar, Chennai, Tamil Nadu, 600042, India",15,9,35,Yes,High,80,Fog,10.95303056766268,16.42954585149402,23.014603189002898,2025-02-13 09:21:17.680676,2025-02-13 09:44:18.556867,Low
"Dr.Agarwals Eye Hospital - Velacherry, Velachery Bypass Road, Gangai Nagar, Ward 177, Zone 13 Adyar, Chennai, Tamil Nadu, 600042, India",12.9832366,80.217509,"Dr.Agarwals Eye Hospital - Velacherry, Velachery Bypass Road, Gangai Nagar, Ward 177, Zone 13 Adyar, Chennai, Tamil Nadu, 600042, India",13,9,30,No,Moderate,18,Clear,10.515674059888159,15.773511089832237,29.249857322333806,2025-02-13 09:09:17.680676,2025-02-13 09:38:32.672115,High
"Xcellent Care Superspeciality Hospital, Velachery Bypass Road, Gangai Nagar, CMWSSB Division 178, Zone 13 Adyar, Chennai, Tamil Nadu, 600042, India",12.9833895,80.2181782,"Xcellent Care Superspeciality Hospital, Velachery Bypass Road, Gangai Nagar, CMWSSB Division 178, Zone 13 Adyar, Chennai, Tamil Nadu, 600042, India",13,8,30,No,Moderate,22,Fog,6.7871717254003165,10.180757588100475,16.23368687835954,2025-02-13 08:55:17.680676,2025-02-13 09:11:31.701889,Low
"Palani Balaji Fertility Centre, Velachery Road, Jothiammal Nagar, Ward 171, Zone 13 Adyar, Chennai, Tamil Nadu, 624601, India",13.0122123,80.2235084,"Palani Balaji Fertility Centre, Velachery Road, Jothiammal Nagar, Ward 171, Zone 13 Adyar, Chennai, Tamil Nadu, 624601, India",13,6,30,No,Low,21,Fog,5.091743353365659,7.637615030048488,20.47245780012223,2025-02-13 09:29:17.680676,2025-02-13 09:49:46.028144,Medium
"Diha Clinic, No 6, Nanganallur 6th Main Road, CMWSSB Division 167, Ward 167, Zone 12 Alandur, Alandur, Chennai, Tamil Nadu, 600061, India",12.98096495,80.18711415874711,"Diha Clinic, No 6, Nanganallur 6th Main Road, CMWSSB Division 167, Ward 167, Zone 12 Alandur, Alandur, Chennai, Tamil Nadu, 600061, India",28,9,30,Yes,High,70,Snow,8.682896500677291,13.024344751015937,25.96173922204345,2025-02-13 09:21:17.680676,2025-02-13 09:47:15.385029,Low
"No 6, Nanganallur 6th Main Road, CMWSSB Division 167, Ward 167, Zone 12 Alandur, Alandur, Chennai, Tamil Nadu, 600061, India",12.9809491,80.1871116,"No 6, Nanganallur 6th Main Road, CMWSSB Division 167, Ward 167, Zone 12 Alandur, Alandur, Chennai, Tamil Nadu, 600061, India",22,10,20,Yes,Low,13,Rain,6.679401883190341,10.019102824785511,19.925266171058773,2025-02-13 09:08:17.680676,2025-02-13 09:28:13.196646,High
"Velachery K S Hospital, kalki nagar main road, Ward 178, Zone 13 Adyar, Sholinganallur, Chennai, Tamil Nadu, 600042, India",12.9763914,80.2114016,"Velachery K S Hospital, kalki nagar main road, Ward 178, Zone 13 Adyar, Sholinganallur, Chennai, Tamil Nadu, 600042, India",29,6,25,Yes,High,45,Rain,8.320597789192455,12.480896683788682,25.709901536303022,2025-02-13 09:14:17.680676,2025-02-13 09:40:00.274768,Low
"MIOT International, Miot International Hospital road, CMWSSB Division 157, Ward 157, Zone 12 Alandur, Alandur, Chennai, Tamil Nadu, 600089, India",13.0211808,80.1858412,"MIOT International, Miot International Hospital road, CMWSSB Division 157, Ward 157, Zone 12 Alandur, Alandur, Chennai, Tamil Nadu, 600089, India",23,6,35,No,Moderate,19,Fog,12.897387425899453,19.34608113884918,31.513180192351516,2025-02-13 09:13:17.680676,2025-02-13 09:44:48.471488,Medium
"Gowri Nursing Home, Kanchipuram, 6th Street, Lakshmi Nagar, CMWSSB Division 167, Ward 167, Zone 12 Alandur, Kanchipuram, Chennai, Tamil Nadu, 600061, India",12.9779713,80.1883923,"Gowri Nursing Home, Kanchipuram, 6th Street, Lakshmi Nagar, CMWSSB Division 167, Ward 167, Zone 12 Alandur, Kanchipuram, Chennai, Tamil Nadu, 600061, India",30,9,30,No,Low,15,Fog,10.67784650750934,16.016769761264012,21.51007976840524,2025-02-13 09:15:17.680676,2025-02-13 09:36:48.285462,Medium
"KS Bone and Joint Clinic - Ortho, Gangai Amman Koil Street, Ward 139, Zone 10 Kodambakkam, Chennai, Tamil Nadu, 600001, India",13.026029,80.212368,"KS Bone and Joint Clinic - Ortho, Gangai Amman Koil Street, Ward 139, Zone 10 Kodambakkam, Chennai, Tamil Nadu, 600001, India",30,9,20,Yes,Moderate,23,Rain,12.135862768149751,18.203794152224628,28.22408345367911,2025-02-13 09:19:17.680676,2025-02-13 09:47:31.125683,Low
"Gowri Nursing Home, 100ft Road, Ward 168, Zone 14 Perungudi, Alandur, Chennai, Tamil Nadu, 600061, India",12.9774071,80.18833045104813,"Gowri Nursing Home, 100ft Road, Ward 168, Zone 14 Perungudi, Alandur, Chennai, Tamil Nadu, 600061, India",22,10,20,Yes,Moderate,13,Clear,11.229448852479553,16.84417327871933,28.46924387948911,2025-02-13 09:39:17.680676,2025-02-13 10:07:45.835309,High
"Pankajam Memorial Hospital, Nanganallur 100 Feet Road, CMWSSB Division 167, Ward 167, Zone 12 Alandur, Kanchipuram, Chennai, Tamil Nadu, 600061, India",12.9801472,80.1835965,"Pankajam Memorial Hospital, Nanganallur 100 Feet Road, CMWSSB Division 167, Ward 167, Zone 12 Alandur, Kanchipuram, Chennai, Tamil Nadu, 600061, India",18,10,20,Yes,High,53,Rain,11.12459102559014,16.68688653838521,30.531003744204902,2025-02-13 08:56:17.680676,2025-02-13 09:26:49.540901,Medium
"Sri Chakra Hospital, Nanganallur 100ft Road, CMWSSB Division 167, Ward 167, Zone 12 Alandur, Alandur, Chennai, Tamil Nadu, 600061, India",12.9786524,80.1850278,"Sri Chakra Hospital, Nanganallur 100ft Road, CMWSSB Division 167, Ward 167, Zone 12 Alandur, Alandur, Chennai, Tamil Nadu, 600061, India",22,5,25,No,High,49,Snow,8.543252341601775,12.814878512402663,21.448034318088187,2025-02-13 09:09:17.680676,2025-02-13 09:30:44.562735,Low
"Srichakara Multispeciality Hospital, Nanganallur 100ft Road, CMWSSB Division 167, Ward 167, Zone 12 Alandur, Alandur, Chennai, Tamil Nadu, 600061, India",12.97853,80.1851381,"Srichakara Multispeciality Hospital, Nanganallur 100ft Road, CMWSSB Division 167, Ward 167, Zone 12 Alandur, Alandur, Chennai, Tamil Nadu, 600061, India",11,6,40,No,Moderate,17,Clear,18.973489427297846,28.460234140946767,35.44350404959861,2025-02-13 09:05:17.680676,2025-02-13 09:40:44.290919,Low
"Hindu Mission Health Services, Kanchipuram, Nanganallur 100ft Road, CMWSSB Division 167, Ward 167, Zone 12 Alandur, Kanchipuram, Chennai, Tamil Nadu, 603209, India",12.9787682,80.1846471,"Hindu Mission Health Services, Kanchipuram, Nanganallur 100ft Road, CMWSSB Division 167, Ward 167, Zone 12 Alandur, Kanchipuram, Chennai, Tamil Nadu, 603209, India",15,7,35,Yes,Low,16,Rain,6.279262194993411,9.418893292490116,20.31697333593106,2025-02-13 09:23:17.681686,2025-02-13 09:43:36.700086,Low
"Nivas Skin Clinic, Inner Ring Road, CMWSSB Division 138, Zone 10 Kodambakkam, Chennai, Tamil Nadu, 600001, India",13.0289663,80.2085951,"Nivas Skin Clinic, Inner Ring Road, CMWSSB Division 138, Zone 10 Kodambakkam, Chennai, Tamil Nadu, 600001, India",83,36,30,No,Moderate,22,Snow,13.469827615785018,20.204741423677525,31.92180170477123,2025-02-13 09:32:17.681686,2025-02-13 10:04:12.989788,Medium
"சைதாப்பேட்டை அரசு மருத்துவமனை, Jeenis Road, Ward 142, Zone 10 Kodambakkam, Chennai, Tamil Nadu, 600015, India",13.02044625,80.22405105438145,"சைதாப்பேட்டை அரசு மருத்துவமனை, Jeenis Road, Ward 142, Zone 10 Kodambakkam, Chennai, Tamil Nadu, 600015, India",196,78,35,Yes,High,32,Rain,7.960395715639905,11.940593573459857,17.731931204334412,2025-02-13 09:33:17.681686,2025-02-13 09:51:01.597558,High
"Bora Hospital, Vadhyar Subbraya mudali street, Saidapet, Zone 10 Kodambakkam, Chennai, Tamil Nadu, 600015, India",13.02231095,80.2222779,"Bora Hospital, Vadhyar Subbraya mudali street, Saidapet, Zone 10 Kodambakkam, Chennai, Tamil Nadu, 600015, India",89,42,20,Yes,Moderate,29,Snow,10.971583612756906,16.45737541913536,28.42218325085502,2025-02-13 09:20:17.681686,2025-02-13 09:48:43.012681,Low
"Prashanth Hospitals, 36, Velachery Main Road, JagannathaPuram, CMWSSB Division 179, Zone 13 Adyar, Chennai, Tamil Nadu, 600042, India",12.9784544,80.2214698,"Prashanth Hospitals, 36, Velachery Main Road, JagannathaPuram, CMWSSB Division 179, Zone 13 Adyar, Chennai, Tamil Nadu, 600042, India",15,8,35,No,High,32,Clear,5.6502394253151085,8.475359137972664,21.986079113171655,2025-02-13 09:18:17.681686,2025-02-13 09:40:16.846433,Medium
"Nalam Hospital, Manapakkam Main Road, CMWSSB Division 157, Ward 157, Zone 12 Alandur, Mugalivakkam, Chengalpattu, Chennai, Tamil Nadu, 600116, India",13.0164671,80.1772853,"Nalam Hospital, Manapakkam Main Road, CMWSSB Division 157, Ward 157, Zone 12 Alandur, Mugalivakkam, Chengalpattu, Chennai, Tamil Nadu, 600116, India",20,7,20,Yes,Low,27,Snow,10.296607304985981,15.444910957478971,21.239990040444624,2025-02-13 08:51:17.681686,2025-02-13 09:12:32.081088,Medium
"Chennai Corporation 24 Hours Maternity Hospital, Jeenis Road, Ward 142, Zone 10 Kodambakkam, Chennai, Tamil Nadu, 600015, India",13.0208822,80.22412781839571,"Chennai Corporation 24 Hours Maternity Hospital, Jeenis Road, Ward 142, Zone 10 Kodambakkam, Chennai, Tamil Nadu, 600015, India",172,59,40,Yes,Low,14,Fog,17.04678514114103,25.570177711711544,36.4086716897926,2025-02-13 09:33:17.681686,2025-02-13 10:09:42.201987,High
"Dhanraj Hospital, Karpaga Vinayakar Koil Street, CMWSSB Division 160, Ward 160, Zone 12 Alandur, Chengalpattu, Chennai, Tamil Nadu, 600016, India",13.0017797,80.2033269,"Dhanraj Hospital, Karpaga Vinayakar Koil Street, CMWSSB Division 160, Ward 160, Zone 12 Alandur, Chengalpattu, Chennai, Tamil Nadu, 600016, India",13,8,30,Yes,Low,15,Snow,13.695808048567644,20.543712072851466,28.994588331176963,2025-02-13 09:23:17.681686,2025-02-13 09:52:17.356986,Low
"Cu Shah Sankara Netralaya, Station Road, CMWSSB Division 201, St. Thomas Mount Cantonment, Zone 12 Alandur, St.Thomas Mount-Pallavaram Cantonment Board, Kanchipuram, Chennai, Tamil Nadu, 600016, India",13.0012687,80.2001283,"Cu Shah Sankara Netralaya, Station Road, CMWSSB Division 201, St. Thomas Mount Cantonment, Zone 12 Alandur, St.Thomas Mount-Pallavaram Cantonment Board, Kanchipuram, Chennai, Tamil Nadu, 600016, India",18,7,25,No,Moderate,16,Fog,11.569479642135585,17.35421946320338,31.53171672161789,2025-02-13 09:07:17.681686,2025-02-13 09:38:49.584689,High
"S.S. Hospital, Sowri street, CMWSSB Division 160, Ward 160, Zone 12 Alandur, Chengalpattu, Chennai, Tamil Nadu, 600016, India",13.0036449,80.2030844,"S.S. Hospital, Sowri street, CMWSSB Division 160, Ward 160, Zone 12 Alandur, Chengalpattu, Chennai, Tamil Nadu, 600016, India",14,6,35,Yes,Low,10,Rain,7.31274847435664,10.969122711534961,21.795327565724918,2025-02-13 09:23:17.681686,2025-02-13 09:45:05.401340,High
"Government Hospital Alandur, Vishnu Street, CMWSSB Division 160, Ward 160, Zone 12 Alandur, St. Thomas Mount Cantonment, Alandur, Chennai, Tamil Nadu, 600016, India",13.0048164,80.2025432,"Government Hospital Alandur, Vishnu Street, CMWSSB Division 160, Ward 160, Zone 12 Alandur, St. Thomas Mount Cantonment, Alandur, Chennai, Tamil Nadu, 600016, India",19,9,35,Yes,High,67,Clear,6.485101204841035,9.727651807261552,18.036922422723418,2025-02-13 09:20:17.681686,2025-02-13 09:38:19.897031,Low
"Kaanthi Makapperu Hospital, Sowri street, CMWSSB Division 160, Ward 160, Zone 12 Alandur, Chengalpattu, Chennai, Tamil Nadu, 600016, India",13.003406,80.2063632,"Kaanthi Makapperu Hospital, Sowri street, CMWSSB Division 160, Ward 160, Zone 12 Alandur, Chengalpattu, Chennai, Tamil Nadu, 600016, India",24,7,25,No,Low,16,Fog,8.357459004269018,12.536188506403526,21.86559501524219,2025-02-13 09:23:17.681686,2025-02-13 09:45:09.617387,Medium
"Jaya Sri Hospital, MKN Road, CMWSSB Division 160, Ward 160, Zone 12 Alandur, St.Thomas Mount-Pallavaram Cantonment Board, Chengalpattu, Chennai, Tamil Nadu, 600016, India",13.0027883,80.207025,"Jaya Sri Hospital, MKN Road, CMWSSB Division 160, Ward 160, Zone 12 Alandur, St.Thomas Mount-Pallavaram Cantonment Board, Chengalpattu, Chennai, Tamil Nadu, 600016, India",28,10,20,Yes,High,54,Rain,15.205583815383148,22.80837572307472,36.65346307448161,2025-02-13 09:07:17.681686,2025-02-13 09:43:56.889470,Medium
"G. R. Hospital & Fertility Centre, City Link Road, CMWSSB Division 160, Zone 13 Adyar, Zone 12 Alandur, Alandur, Chennai, Tamil Nadu, 600088, India",12.9952982,80.2068955,"G. R. Hospital & Fertility Centre, City Link Road, CMWSSB Division 160, Zone 13 Adyar, Zone 12 Alandur, Alandur, Chennai, Tamil Nadu, 600088, India",30,6,35,Yes,Moderate,30,Snow,15.824550367344518,23.73682555101678,34.36364993057829,2025-02-13 09:22:17.681686,2025-02-13 09:56:39.500682,Low
"Balaji Hospital (P) Ltd, Anna Salai (Mount Road), Ward 170, Zone 13 Adyar, Alandur, Chennai, Tamil Nadu, 600032, India",13.00738175,80.20608622840193,"Balaji Hospital (P) Ltd, Anna Salai (Mount Road), Ward 170, Zone 13 Adyar, Alandur, Chennai, Tamil Nadu, 600032, India",12,6,35,No,Low,29,Fog,19.32592431013633,28.988886465204494,43.539442012222175,2025-02-13 09:01:17.682214,2025-02-13 09:44:50.048735,Medium
"SP Hospital, Mount - Medavakkam Road, CMWSSB Division 163, Ward 163, Zone 12 Alandur, Kanchipuram, Chennai, Tamil Nadu, 600088, India",12.9933638,80.2009134,"SP Hospital, Mount - Medavakkam Road, CMWSSB Division 163, Ward 163, Zone 12 Alandur, Kanchipuram, Chennai, Tamil Nadu, 600088, India",25,5,35,Yes,Moderate,17,Clear,6.039276777608992,9.05891516641349,15.498801579392847,2025-02-13 09:27:17.682214,2025-02-13 09:42:47.610309,Medium
"Ponmalligai Hospital Pvt Ltd, Kakkan Nagar Main Road, Ward 177, Zone 13 Adyar, Zone 12 Alandur, Kanchipuram, Chennai, Tamil Nadu, 600088, India",12.9925116,80.2061465,"Ponmalligai Hospital Pvt Ltd, Kakkan Nagar Main Road, Ward 177, Zone 13 Adyar, Zone 12 Alandur, Kanchipuram, Chennai, Tamil Nadu, 600088, India",18,9,25,Yes,Low,27,Fog,9.448173113619674,14.172259670429511,24.1854601255564,2025-02-13 09:28:17.682214,2025-02-13 09:52:28.809822,High
"K P Childrens Hospital And Neuro Centre, Mount - Medavakkam Road, CMWSSB Division 163, Ward 163, Zone 12 Alandur, Kanchipuram, Chennai, Tamil Nadu, 600088, India",12.9911179,80.1986745,"K P Childrens Hospital And Neuro Centre, Mount - Medavakkam Road, CMWSSB Division 163, Ward 163, Zone 12 Alandur, Kanchipuram, Chennai, Tamil Nadu, 600088, India",10,9,30,Yes,Moderate,10,Snow,19.33522553862798,29.00283830794197,42.42381274857371,2025-02-13 08:57:17.682214,2025-02-13 09:39:43.110979,Medium
"Cantonment General Hospital, Magazine Road, CMWSSB Division 201, St. Thomas Mount Cantonment, Zone 12 Alandur, St.Thomas Mount-Pallavaram Cantonment Board, Alandur, Chennai, Tamil Nadu, 600016, India",13.0096653,80.19501478878405,"Cantonment General Hospital, Magazine Road, CMWSSB Division 201, St. Thomas Mount Cantonment, Zone 12 Alandur, St.Thomas Mount-Pallavaram Cantonment Board, Alandur, Chennai, Tamil Nadu, 600016, India",20,7,20,No,High,58,Fog,17.939018697237774,26.908528045856663,39.36268040410946,2025-02-13 08:49:17.682214,2025-02-13 09:28:39.443038,Low
"Magazine Road, CMWSSB Division 201, St. Thomas Mount Cantonment, Zone 12 Alandur, St.Thomas Mount-Pallavaram Cantonment Board, Alandur, Chennai, Tamil Nadu, 600016, India",13.009781,80.1949734,"Magazine Road, CMWSSB Division 201, St. Thomas Mount Cantonment, Zone 12 Alandur, St.Thomas Mount-Pallavaram Cantonment Board, Alandur, Chennai, Tamil Nadu, 600016, India",28,7,30,No,Moderate,14,Snow,6.105101424267119,9.157652136400678,23.593120488898254,2025-02-13 09:33:17.682214,2025-02-13 09:56:53.269443,Low
"Rathna Hospital, St Patricks Church Road, CMWSSB Division 201, St. Thomas Mount Cantonment, Zone 12 Alandur, St. Thomas Mount Cantonment, Chengalpattu, Chennai, Tamil Nadu, 600016, India",13.0087475,80.1937172,"Rathna Hospital, St Patricks Church Road, CMWSSB Division 201, St. Thomas Mount Cantonment, Zone 12 Alandur, St. Thomas Mount Cantonment, Chengalpattu, Chennai, Tamil Nadu, 600016, India",25,7,30,No,Low,15,Rain,13.193007358646682,19.789511037970023,31.913853495451548,2025-02-13 09:08:17.682214,2025-02-13 09:40:12.513424,High
"St. Thomas Hospital, Defence Colony Road, CMWSSB Division 201, St. Thomas Mount Cantonment, St.Thomas Mount-Pallavaram Cantonment Board, Kanchipuram, Chennai, Tamil Nadu, 600016, India",13.0122733,80.196428,"St. Thomas Hospital, Defence Colony Road, CMWSSB Division 201, St. Thomas Mount Cantonment, St.Thomas Mount-Pallavaram Cantonment Board, Kanchipuram, Chennai, Tamil Nadu, 600016, India",73,29,40,No,High,34,Snow,17.12784507508569,25.691767612628535,37.38149407135227,2025-02-13 09:35:17.682214,2025-02-13 10:12:40.571858,Medium
"Military Hospital, 2nd Seven Wells Street, CMWSSB Division 158, Ward 158, Zone 12 Alandur, Alandur, Chennai, Tamil Nadu, 600016, India",13.0117736,80.1941708,"Military Hospital, 2nd Seven Wells Street, CMWSSB Division 158, Ward 158, Zone 12 Alandur, Alandur, Chennai, Tamil Nadu, 600016, India",24,10,20,Yes,Moderate,18,Snow,9.436341498522474,14.15451224778371,26.38827490183482,2025-02-13 09:37:17.682214,2025-02-13 10:03:40.978708,Low
"BM Hospital, 5th Main Road, CMWSSB Division 162, Ward 162, Zone 12 Alandur, Alandur, Chennai, Tamil Nadu, 600114, India",12.9887616,80.1904116,"BM Hospital, 5th Main Road, CMWSSB Division 162, Ward 162, Zone 12 Alandur, Alandur, Chennai, Tamil Nadu, 600114, India",19,6,35,No,High,37,Rain,16.055075453032167,24.08261317954825,33.15689089546831,2025-02-13 09:33:17.682214,2025-02-13 10:06:27.095668,Medium
"Dr Bala's Skin clinic, 14, Vanalar Street, CMWSSB Division 165, Ward 165, Zone 12 Alandur, Alandur, Chennai, Tamil Nadu, 600088, India",12.9831959,80.2013573,"Dr Bala's Skin clinic, 14, Vanalar Street, CMWSSB Division 165, Ward 165, Zone 12 Alandur, Alandur, Chennai, Tamil Nadu, 600088, India",14,6,20,No,Moderate,14,Snow,13.23264473564713,19.848967103470695,26.151602244113498,2025-02-13 09:00:17.682214,2025-02-13 09:26:26.778349,Low
"HOSPICE, Nagi Reddy thottam Garden Rd, Labour Colony, CMWSSB Division 170, Zone 13 Adyar, Chennai, Tamil Nadu, 600001, India",13.015872900000002,80.21345943331696,"HOSPICE, Nagi Reddy thottam Garden Rd, Labour Colony, CMWSSB Division 170, Zone 13 Adyar, Chennai, Tamil Nadu, 600001, India",30,7,40,Yes,Low,30,Clear,18.830212682552464,28.245319023828696,35.79592328250004,2025-02-13 09:30:17.682214,2025-02-13 10:06:05.437611,High
"Military Hospital, Defence Colony 1st Avenue, CMWSSB Division 201, St. Thomas Mount Cantonment, St.Thomas Mount-Pallavaram Cantonment Board, Alandur, Chennai, Tamil Nadu, 600016, India",13.0194622,80.1972947,"Military Hospital, Defence Colony 1st Avenue, CMWSSB Division 201, St. Thomas Mount Cantonment, St.Thomas Mount-Pallavaram Cantonment Board, Alandur, Chennai, Tamil Nadu, 600016, India",27,5,40,No,Low,21,Snow,10.132670318029245,15.199005477043867,26.695449505595597,2025-02-13 08:50:17.682214,2025-02-13 09:16:59.409184,Low
"Rotary Central Margaret Sidney Hospital, 2nd Main Road, CMWSSB Division 165, Ward 165, Zone 12 Alandur, Alandur, Chennai, Tamil Nadu, 600001, India",12.9837958,80.1932105,"Rotary Central Margaret Sidney Hospital, 2nd Main Road, CMWSSB Division 165, Ward 165, Zone 12 Alandur, Alandur, Chennai, Tamil Nadu, 600001, India",10,6,30,No,High,41,Rain,19.397959098104153,29.09693864715623,43.89663780794461,2025-02-13 08:56:17.682214,2025-02-13 09:40:11.480482,Medium
"Hariharan Hospital, 29th Street, CMWSSB Division 164, Ward 164, Zone 12 Alandur, Alandur, Chennai, Tamil Nadu, 600061, India",12.9847145,80.1905906,"Hariharan Hospital, 29th Street, CMWSSB Division 164, Ward 164, Zone 12 Alandur, Alandur, Chennai, Tamil Nadu, 600061, India",16,7,40,Yes,Low,11,Fog,17.24959122751995,25.874386841279925,39.70228701831917,2025-02-13 09:11:17.682214,2025-02-13 09:50:59.819435,Low
"Bharath Hospital, 72, Nanganallur 1st Main Road, CMWSSB Division 165, Ward 165, Zone 12 Alandur, Alandur, Chennai, Tamil Nadu, 600061, India",12.9823277,80.1937835,"Bharath Hospital, 72, Nanganallur 1st Main Road, CMWSSB Division 165, Ward 165, Zone 12 Alandur, Alandur, Chennai, Tamil Nadu, 600061, India",10,5,20,Yes,Moderate,23,Clear,10.924318787071027,16.386478180606538,29.971512163089706,2025-02-13 09:33:17.682214,2025-02-13 10:03:15.972944,Low
"Prime Care Nursing Home, Brindavan Nagar Main Road, CMWSSB Division 165, Ward 165, Zone 12 Alandur, Alandur, Chennai, Tamil Nadu, 600042, India",12.9799192,80.2044922,"Prime Care Nursing Home, Brindavan Nagar Main Road, CMWSSB Division 165, Ward 165, Zone 12 Alandur, Alandur, Chennai, Tamil Nadu, 600042, India",24,8,30,No,Low,28,Fog,16.559349320531304,24.839023980796956,32.88572605816751,2025-02-13 08:58:17.682214,2025-02-13 09:31:10.825777,Low
"Dr. Janardhanan Multispeciality Dental Clinic, Nanganallur 4th Main Road, CMWSSB Division 164, Ward 164, Zone 12 Alandur, Alandur, Chennai, Tamil Nadu, 600114, India",12.9842586,80.1886083,"Dr. Janardhanan Multispeciality Dental Clinic, Nanganallur 4th Main Road, CMWSSB Division 164, Ward 164, Zone 12 Alandur, Alandur, Chennai, Tamil Nadu, 600114, India",12,5,30,Yes,Low,20,Fog,10.4136112108451,15.620416816267653,24.562023153268733,2025-02-13 08:50:17.683223,2025-02-13 09:14:51.404612,High
"Qure Ortho Clinic, Physiotherapy, X Ray & Pharmacy, Brindavan Nagar Main Road, CMWSSB Division 165, Ward 165, Zone 12 Alandur, Alandur, Chennai, Tamil Nadu, 600042, India",12.9794,80.2043658,"Qure Ortho Clinic, Physiotherapy, X Ray & Pharmacy, Brindavan Nagar Main Road, CMWSSB Division 165, Ward 165, Zone 12 Alandur, Alandur, Chennai, Tamil Nadu, 600042, India",26,7,30,Yes,Low,27,Snow,13.9975207645243,20.99628114678645,32.377756212446045,2025-02-13 09:34:17.683223,2025-02-13 10:06:40.348596,Low
"Xcellent Care Hospital, RajaLaxmi Nagar 7th Cross Street, RajaLaxmi Nagar, CMWSSB Division 178, Zone 13 Adyar, Chennai, Tamil Nadu, 600042, India",12.9855867,80.21842695262237,"Xcellent Care Hospital, RajaLaxmi Nagar 7th Cross Street, RajaLaxmi Nagar, CMWSSB Division 178, Zone 13 Adyar, Chennai, Tamil Nadu, 600042, India",22,8,20,No,Low,23,Clear,19.91252663385335,29.868789950780023,38.64350182594751,2025-02-13 09:34:17.683223,2025-02-13 10:12:56.293333,Medium
"Sri Venkateshwara`s C.M. Hospital, Nanganallur 5th Main Road, CMWSSB Division 167, Ward 167, Zone 12 Alandur, Alandur, Chennai, Tamil Nadu, 600061, India",12.9857914,80.185987,"Sri Venkateshwara`s C.M. Hospital, Nanganallur 5th Main Road, CMWSSB Division 167, Ward 167, Zone 12 Alandur, Alandur, Chennai, Tamil Nadu, 600061, India",17,9,30,Yes,Low,16,Clear,18.427889377542616,27.641834066313926,40.330405618444416,2025-02-13 08:58:17.683223,2025-02-13 09:38:37.507560,Medium
"Dr.Agarwal's Eye Hospital Ltd, Nanganallur, Nanganallur 1st Main Road, CMWSSB Division 164, Ward 164, Zone 12 Alandur, Kanchipuram, Chennai, Tamil Nadu, 600061, India",12.9827844,80.1891661,"Dr.Agarwal's Eye Hospital Ltd, Nanganallur, Nanganallur 1st Main Road, CMWSSB Division 164, Ward 164, Zone 12 Alandur, Kanchipuram, Chennai, Tamil Nadu, 600061, India",15,10,25,Yes,Low,26,Rain,5.211161465912329,7.816742198868493,19.22024239847999,2025-02-13 09:37:17.683223,2025-02-13 09:56:30.897767,Medium
"Helios Hospital Pvt Ltd, RajaLaxmi Nagar 7th Cross Street, RajaLaxmi Nagar, CMWSSB Division 178, Zone 13 Adyar, Chennai, Tamil Nadu, 600042, India",12.9855882,80.2189144,"Helios Hospital Pvt Ltd, RajaLaxmi Nagar 7th Cross Street, RajaLaxmi Nagar, CMWSSB Division 178, Zone 13 Adyar, Chennai, Tamil Nadu, 600042, India",26,6,40,Yes,Moderate,21,Clear,12.232991901188338,18.34948785178251,26.076227433453035,2025-02-13 08:45:17.683223,2025-02-13 09:11:22.256869,Medium
"Dr.Agarwals Eye Hospital - Velacherry, Velachery Bypass Road, Gangai Nagar, Ward 177, Zone 13 Adyar, Chennai, Tamil Nadu, 600042, India",12.9832366,80.217509,"Dr.Agarwals Eye Hospital - Velacherry, Velachery Bypass Road, Gangai Nagar, Ward 177, Zone 13 Adyar, Chennai, Tamil Nadu, 600042, India",27,5,40,No,High,34,Fog,6.6561855014830105,9.984278252224517,24.50450085276253,2025-02-13 09:28:17.683223,2025-02-13 09:52:47.953274,Low
"Xcellent Care Superspeciality Hospital, Velachery Bypass Road, Gangai Nagar, CMWSSB Division 178, Zone 13 Adyar, Chennai, Tamil Nadu, 600042, India",12.9833895,80.2181782,"Xcellent Care Superspeciality Hospital, Velachery Bypass Road, Gangai Nagar, CMWSSB Division 178, Zone 13 Adyar, Chennai, Tamil Nadu, 600042, India",15,5,25,Yes,Low,25,Snow,10.594251295632684,15.891376943449027,26.894494852006794,2025-02-13 09:15:17.683223,2025-02-13 09:42:11.352914,Low
"Palani Balaji Fertility Centre, Velachery Road, Jothiammal Nagar, Ward 171, Zone 13 Adyar, Chennai, Tamil Nadu, 624601, India",13.0122123,80.2235084,"Palani Balaji Fertility Centre, Velachery Road, Jothiammal Nagar, Ward 171, Zone 13 Adyar, Chennai, Tamil Nadu, 624601, India",22,6,25,Yes,High,50,Snow,9.889938641770224,14.834907962655336,25.758639713395766,2025-02-13 09:38:17.683223,2025-02-13 10:04:03.201606,Medium
"Diha Clinic, No 6, Nanganallur 6th Main Road, CMWSSB Division 167, Ward 167, Zone 12 Alandur, Alandur, Chennai, Tamil Nadu, 600061, India",12.98096495,80.18711415874711,"Diha Clinic, No 6, Nanganallur 6th Main Road, CMWSSB Division 167, Ward 167, Zone 12 Alandur, Alandur, Chennai, Tamil Nadu, 600061, India",20,5,35,No,Low,13,Fog,16.361940295655444,24.542910443483166,36.31082727406347,2025-02-13 09:13:17.683223,2025-02-13 09:49:36.332859,High
"No 6, Nanganallur 6th Main Road, CMWSSB Division 167, Ward 167, Zone 12 Alandur, Alandur, Chennai, Tamil Nadu, 600061, India",12.9809491,80.1871116,"No 6, Nanganallur 6th Main Road, CMWSSB Division 167, Ward 167, Zone 12 Alandur, Alandur, Chennai, Tamil Nadu, 600061, India",19,9,30,No,Moderate,17,Clear,5.806102036277139,8.709153054415708,19.89966670207572,2025-02-13 09:31:17.683223,2025-02-13 09:51:11.663225,Low
"Velachery K S Hospital, kalki nagar main road, Ward 178, Zone 13 Adyar, Sholinganallur, Chennai, Tamil Nadu, 600042, India",12.9763914,80.2114016,"Velachery K S Hospital, kalki nagar main road, Ward 178, Zone 13 Adyar, Sholinganallur, Chennai, Tamil Nadu, 600042, India",21,9,35,No,High,68,Snow,7.16341476763227,10.745122151448406,23.164728171858478,2025-02-13 09:06:17.683223,2025-02-13 09:29:27.566913,Low
"MIOT International, Miot International Hospital road, CMWSSB Division 157, Ward 157, Zone 12 Alandur, Alandur, Chennai, Tamil Nadu, 600089, India",13.0211808,80.1858412,"MIOT International, Miot International Hospital road, CMWSSB Division 157, Ward 157, Zone 12 Alandur, Alandur, Chennai, Tamil Nadu, 600089, India",26,9,40,Yes,High,46,Fog,6.365435541672774,9.54815331250916,24.435235892504366,2025-02-13 08:53:17.683223,2025-02-13 09:17:43.797377,Low
"Gowri Nursing Home, Kanchipuram, 6th Street, Lakshmi Nagar, CMWSSB Division 167, Ward 167, Zone 12 Alandur, Kanchipuram, Chennai, Tamil Nadu, 600061, India",12.9779713,80.1883923,"Gowri Nursing Home, Kanchipuram, 6th Street, Lakshmi Nagar, CMWSSB Division 167, Ward 167, Zone 12 Alandur, Kanchipuram, Chennai, Tamil Nadu, 600061, India",28,6,30,Yes,Moderate,15,Fog,12.492156749713025,18.738235124569538,26.85195958526794,2025-02-13 09:14:17.683223,2025-02-13 09:41:08.800798,High
"KS Bone and Joint Clinic - Ortho, Gangai Amman Koil Street, Ward 139, Zone 10 Kodambakkam, Chennai, Tamil Nadu, 600001, India",13.026029,80.212368,"KS Bone and Joint Clinic - Ortho, Gangai Amman Koil Street, Ward 139, Zone 10 Kodambakkam, Chennai, Tamil Nadu, 600001, India",18,10,30,Yes,Low,28,Snow,9.97432391048293,14.961485865724395,27.825438143799403,2025-02-13 09:06:17.683223,2025-02-13 09:34:07.209512,High
"Gowri Nursing Home, 100ft Road, Ward 168, Zone 14 Perungudi, Alandur, Chennai, Tamil Nadu, 600061, India",12.9774071,80.18833045104813,"Gowri Nursing Home, 100ft Road, Ward 168, Zone 14 Perungudi, Alandur, Chennai, Tamil Nadu, 600061, India",18,8,40,Yes,Low,11,Snow,5.5535972060559,8.33039580908385,16.804136702294837,2025-02-13 09:37:17.683223,2025-02-13 09:54:05.931425,Low
"Pankajam Memorial Hospital, Nanganallur 100 Feet Road, CMWSSB Division 167, Ward 167, Zone 12 Alandur, Kanchipuram, Chennai, Tamil Nadu, 600061, India",12.9801472,80.1835965,"Pankajam Memorial Hospital, Nanganallur 100 Feet Road, CMWSSB Division 167, Ward 167, Zone 12 Alandur, Kanchipuram, Chennai, Tamil Nadu, 600061, India",19,7,20,Yes,Low,14,Fog,11.396378761412308,17.09456814211846,30.070589033096006,2025-02-13 09:35:17.683223,2025-02-13 10:05:21.918565,Low
"Sri Chakra Hospital, Nanganallur 100ft Road, CMWSSB Division 167, Ward 167, Zone 12 Alandur, Alandur, Chennai, Tamil Nadu, 600061, India",12.9786524,80.1850278,"Sri Chakra Hospital, Nanganallur 100ft Road, CMWSSB Division 167, Ward 167, Zone 12 Alandur, Alandur, Chennai, Tamil Nadu, 600061, India",15,8,20,No,Low,13,Rain,17.266355266165412,25.89953289924812,35.55752729976817,2025-02-13 09:11:17.683223,2025-02-13 09:46:51.134861,Medium
"Srichakara Multispeciality Hospital, Nanganallur 100ft Road, CMWSSB Division 167, Ward 167, Zone 12 Alandur, Alandur, Chennai, Tamil Nadu, 600061, India",12.97853,80.1851381,"Srichakara Multispeciality Hospital, Nanganallur 100ft Road, CMWSSB Division 167, Ward 167, Zone 12 Alandur, Alandur, Chennai, Tamil Nadu, 600061, India",30,5,40,No,Low,12,Clear,5.984536719094292,8.976805078641439,22.284890653950704,2025-02-13 09:30:17.683223,2025-02-13 09:52:34.776662,Medium
"Hindu Mission Health Services, Kanchipuram, Nanganallur 100ft Road, CMWSSB Division 167, Ward 167, Zone 12 Alandur, Kanchipuram, Chennai, Tamil Nadu, 603209, India",12.9787682,80.1846471,"Hindu Mission Health Services, Kanchipuram, Nanganallur 100ft Road, CMWSSB Division 167, Ward 167, Zone 12 Alandur, Kanchipuram, Chennai, Tamil Nadu, 603209, India",17,10,25,Yes,Moderate,19,Rain,9.70556393059802,14.55834589589703,19.643842271743722,2025-02-13 09:06:17.683223,2025-02-13 09:25:56.313759,High
"Nivas Skin Clinic, Inner Ring Road, CMWSSB Division 138, Zone 10 Kodambakkam, Chennai, Tamil Nadu, 600001, India",13.0289663,80.2085951,"Nivas Skin Clinic, Inner Ring Road, CMWSSB Division 138, Zone 10 Kodambakkam, Chennai, Tamil Nadu, 600001, India",61,29,20,No,Moderate,18,Snow,11.579651069736267,17.3694766046044,23.639579777380405,2025-02-13 09:26:17.683223,2025-02-13 09:49:56.058010,Low
"சைதாப்பேட்டை அரசு மருத்துவமனை, Jeenis Road, Ward 142, Zone 10 Kodambakkam, Chennai, Tamil Nadu, 600015, India",13.02044625,80.22405105438145,"சைதாப்பேட்டை அரசு மருத்துவமனை, Jeenis Road, Ward 142, Zone 10 Kodambakkam, Chennai, Tamil Nadu, 600015, India",162,51,20,Yes,Moderate,19,Clear,18.85272814380183,28.279092215702743,36.3184891884931,2025-02-13 09:32:17.683223,2025-02-13 10:08:36.792574,High
"Bora Hospital, Vadhyar Subbraya mudali street, Saidapet, Zone 10 Kodambakkam, Chennai, Tamil Nadu, 600015, India",13.02231095,80.2222779,"Bora Hospital, Vadhyar Subbraya mudali street, Saidapet, Zone 10 Kodambakkam, Chennai, Tamil Nadu, 600015, India",55,49,25,No,Moderate,14,Rain,11.950457999327561,17.925686998991342,30.858179739002345,2025-02-13 09:32:17.683223,2025-02-13 10:03:09.174007,Low
"Prashanth Hospitals, 36, Velachery Main Road, JagannathaPuram, CMWSSB Division 179, Zone 13 Adyar, Chennai, Tamil Nadu, 600042, India",12.9784544,80.2214698,"Prashanth Hospitals, 36, Velachery Main Road, JagannathaPuram, CMWSSB Division 179, Zone 13 Adyar, Chennai, Tamil Nadu, 600042, India",18,10,35,No,High,79,Snow,19.162917039812015,28.744375559718023,43.10940118568999,2025-02-13 09:33:17.683223,2025-02-13 10:16:24.247294,Medium
"Nalam Hospital, Manapakkam Main Road, CMWSSB Division 157, Ward 157, Zone 12 Alandur, Mugalivakkam, Chengalpattu, Chennai, Tamil Nadu, 600116, India",13.0164671,80.1772853,"Nalam Hospital, Manapakkam Main Road, CMWSSB Division 157, Ward 157, Zone 12 Alandur, Mugalivakkam, Chengalpattu, Chennai, Tamil Nadu, 600116, India",16,8,20,No,High,57,Clear,7.62647752621633,11.439716289324494,17.826114091013444,2025-02-13 08:48:17.683223,2025-02-13 09:06:07.250068,High
"Chennai Corporation 24 Hours Maternity Hospital, Jeenis Road, Ward 142, Zone 10 Kodambakkam, Chennai, Tamil Nadu, 600015, India",13.0208822,80.22412781839571,"Chennai Corporation 24 Hours Maternity Hospital, Jeenis Road, Ward 142, Zone 10 Kodambakkam, Chennai, Tamil Nadu, 600015, India",124,72,25,No,Low,18,Snow,8.876463954604539,13.314695931906808,26.180740948911406,2025-02-13 09:22:17.683223,2025-02-13 09:48:28.527680,Low
"Dhanraj Hospital, Karpaga Vinayakar Koil Street, CMWSSB Division 160, Ward 160, Zone 12 Alandur, Chengalpattu, Chennai, Tamil Nadu, 600016, India",13.0017797,80.2033269,"Dhanraj Hospital, Karpaga Vinayakar Koil Street, CMWSSB Division 160, Ward 160, Zone 12 Alandur, Chengalpattu, Chennai, Tamil Nadu, 600016, India",10,8,35,No,Low,20,Rain,17.0107291880691,25.51609378210365,35.25684407652607,2025-02-13 09:28:17.683223,2025-02-13 10:03:33.093868,Medium
"Cu Shah Sankara Netralaya, Station Road, CMWSSB Division 201, St. Thomas Mount Cantonment, Zone 12 Alandur, St.Thomas Mount-Pallavaram Cantonment Board, Kanchipuram, Chennai, Tamil Nadu, 600016, India",13.0012687,80.2001283,"Cu Shah Sankara Netralaya, Station Road, CMWSSB Division 201, St. Thomas Mount Cantonment, Zone 12 Alandur, St.Thomas Mount-Pallavaram Cantonment Board, Kanchipuram, Chennai, Tamil Nadu, 600016, India",21,8,20,No,High,41,Fog,17.319936281014137,25.979904421521205,36.37732016931059,2025-02-13 09:26:17.683223,2025-02-13 10:02:40.322433,Low
"S.S. Hospital, Sowri street, CMWSSB Division 160, Ward 160, Zone 12 Alandur, Chengalpattu, Chennai, Tamil Nadu, 600016, India",13.0036449,80.2030844,"S.S. Hospital, Sowri street, CMWSSB Division 160, Ward 160, Zone 12 Alandur, Chengalpattu, Chennai, Tamil Nadu, 600016, India",12,6,40,No,Moderate,19,Snow,8.049937681516736,12.074906522275105,22.35379083788643,2025-02-13 09:42:17.683223,2025-02-13 10:04:38.910673,Low
"Government Hospital Alandur, Vishnu Street, CMWSSB Division 160, Ward 160, Zone 12 Alandur, St. Thomas Mount Cantonment, Alandur, Chennai, Tamil Nadu, 600016, India",13.0048164,80.2025432,"Government Hospital Alandur, Vishnu Street, CMWSSB Division 160, Ward 160, Zone 12 Alandur, St. Thomas Mount Cantonment, Alandur, Chennai, Tamil Nadu, 600016, India",19,5,25,No,High,78,Clear,13.863299968329654,20.79494995249448,26.406245785467934,2025-02-13 09:38:17.683223,2025-02-13 10:04:42.057970,High
"Kaanthi Makapperu Hospital, Sowri street, CMWSSB Division 160, Ward 160, Zone 12 Alandur, Chengalpattu, Chennai, Tamil Nadu, 600016, India",13.003406,80.2063632,"Kaanthi Makapperu Hospital, Sowri street, CMWSSB Division 160, Ward 160, Zone 12 Alandur, Chengalpattu, Chennai, Tamil Nadu, 600016, India",21,7,25,Yes,Low,11,Snow,6.487884906105398,9.731827359158096,21.532369025492635,2025-02-13 09:17:17.683223,2025-02-13 09:38:49.625365,High
"Jaya Sri Hospital, MKN Road, CMWSSB Division 160, Ward 160, Zone 12 Alandur, St.Thomas Mount-Pallavaram Cantonment Board, Chengalpattu, Chennai, Tamil Nadu, 600016, India",13.0027883,80.207025,"Jaya Sri Hospital, MKN Road, CMWSSB Division 160, Ward 160, Zone 12 Alandur, St.Thomas Mount-Pallavaram Cantonment Board, Chengalpattu, Chennai, Tamil Nadu, 600016, India",27,8,30,No,Moderate,26,Snow,19.48992041004644,29.234880615069663,42.49896430175114,2025-02-13 08:56:17.684227,2025-02-13 09:38:47.622085,Low
"G. R. Hospital & Fertility Centre, City Link Road, CMWSSB Division 160, Zone 13 Adyar, Zone 12 Alandur, Alandur, Chennai, Tamil Nadu, 600088, India",12.9952982,80.2068955,"G. R. Hospital & Fertility Centre, City Link Road, CMWSSB Division 160, Zone 13 Adyar, Zone 12 Alandur, Alandur, Chennai, Tamil Nadu, 600088, India",23,8,25,No,High,40,Snow,10.538837154897866,15.8082557323468,29.92337911563144,2025-02-13 08:57:17.684227,2025-02-13 09:27:13.086974,Low
"Balaji Hospital (P) Ltd, Anna Salai (Mount Road), Ward 170, Zone 13 Adyar, Alandur, Chennai, Tamil Nadu, 600032, India",13.00738175,80.20608622840193,"Balaji Hospital (P) Ltd, Anna Salai (Mount Road), Ward 170, Zone 13 Adyar, Alandur, Chennai, Tamil Nadu, 600032, India",30,5,25,Yes,High,78,Rain,18.87926017994001,28.318890269910018,41.742042292634906,2025-02-13 09:22:17.684227,2025-02-13 10:04:02.206765,High
"SP Hospital, Mount - Medavakkam Road, CMWSSB Division 163, Ward 163, Zone 12 Alandur, Kanchipuram, Chennai, Tamil Nadu, 600088, India",12.9933638,80.2009134,"SP Hospital, Mount - Medavakkam Road, CMWSSB Division 163, Ward 163, Zone 12 Alandur, Kanchipuram, Chennai, Tamil Nadu, 600088, India",11,10,20,No,Moderate,26,Rain,8.994613584629679,13.491920376944519,20.41723982374637,2025-02-13 09:10:17.684227,2025-02-13 09:30:42.718616,Medium
"Ponmalligai Hospital Pvt Ltd, Kakkan Nagar Main Road, Ward 177, Zone 13 Adyar, Zone 12 Alandur, Kanchipuram, Chennai, Tamil Nadu, 600088, India",12.9925116,80.2061465,"Ponmalligai Hospital Pvt Ltd, Kakkan Nagar Main Road, Ward 177, Zone 13 Adyar, Zone 12 Alandur, Kanchipuram, Chennai, Tamil Nadu, 600088, India",27,9,25,No,High,75,Rain,12.302049488881622,18.453074233322432,28.31666748096539,2025-02-13 09:01:17.684227,2025-02-13 09:29:36.684276,High
"K P Childrens Hospital And Neuro Centre, Mount - Medavakkam Road, CMWSSB Division 163, Ward 163, Zone 12 Alandur, Kanchipuram, Chennai, Tamil Nadu, 600088, India",12.9911179,80.1986745,"K P Childrens Hospital And Neuro Centre, Mount - Medavakkam Road, CMWSSB Division 163, Ward 163, Zone 12 Alandur, Kanchipuram, Chennai, Tamil Nadu, 600088, India",11,7,30,Yes,Low,20,Fog,14.071590773034094,21.107386159551144,29.957643520963437,2025-02-13 09:08:17.684227,2025-02-13 09:38:15.142838,Low
"Cantonment General Hospital, Magazine Road, CMWSSB Division 201, St. Thomas Mount Cantonment, Zone 12 Alandur, St.Thomas Mount-Pallavaram Cantonment Board, Alandur, Chennai, Tamil Nadu, 600016, India",13.0096653,80.19501478878405,"Cantonment General Hospital, Magazine Road, CMWSSB Division 201, St. Thomas Mount Cantonment, Zone 12 Alandur, St.Thomas Mount-Pallavaram Cantonment Board, Alandur, Chennai, Tamil Nadu, 600016, India",22,9,30,Yes,Low,10,Snow,17.252287509448664,25.878431264172995,36.06210600166472,2025-02-13 09:08:17.684227,2025-02-13 09:44:21.410587,Medium
"Magazine Road, CMWSSB Division 201, St. Thomas Mount Cantonment, Zone 12 Alandur, St.Thomas Mount-Pallavaram Cantonment Board, Alandur, Chennai, Tamil Nadu, 600016, India",13.009781,80.1949734,"Magazine Road, CMWSSB Division 201, St. Thomas Mount Cantonment, Zone 12 Alandur, St.Thomas Mount-Pallavaram Cantonment Board, Alandur, Chennai, Tamil Nadu, 600016, India",22,7,35,No,Moderate,14,Clear,18.1072716802911,27.16090752043665,38.38748392079967,2025-02-13 08:49:17.684227,2025-02-13 09:27:40.933262,Medium
"Rathna Hospital, St Patricks Church Road, CMWSSB Division 201, St. Thomas Mount Cantonment, Zone 12 Alandur, St. Thomas Mount Cantonment, Chengalpattu, Chennai, Tamil Nadu, 600016, India",13.0087475,80.1937172,"Rathna Hospital, St Patricks Church Road, CMWSSB Division 201, St. Thomas Mount Cantonment, Zone 12 Alandur, St. Thomas Mount Cantonment, Chengalpattu, Chennai, Tamil Nadu, 600016, India",30,5,40,No,Low,19,Fog,10.78863865809933,16.182957987148995,24.391924562924544,2025-02-13 09:03:17.684227,2025-02-13 09:27:41.199701,Medium
"St. Thomas Hospital, Defence Colony Road, CMWSSB Division 201, St. Thomas Mount Cantonment, St.Thomas Mount-Pallavaram Cantonment Board, Kanchipuram, Chennai, Tamil Nadu, 600016, India",13.0122733,80.196428,"St. Thomas Hospital, Defence Colony Road, CMWSSB Division 201, St. Thomas Mount Cantonment, St.Thomas Mount-Pallavaram Cantonment Board, Kanchipuram, Chennai, Tamil Nadu, 600016, India",88,43,25,No,Moderate,25,Clear,8.336954111574855,12.505431167362282,17.61730123138864,2025-02-13 09:22:17.684227,2025-02-13 09:39:54.722301,High
"Military Hospital, 2nd Seven Wells Street, CMWSSB Division 158, Ward 158, Zone 12 Alandur, Alandur, Chennai, Tamil Nadu, 600016, India",13.0117736,80.1941708,"Military Hospital, 2nd Seven Wells Street, CMWSSB Division 158, Ward 158, Zone 12 Alandur, Alandur, Chennai, Tamil Nadu, 600016, India",20,9,35,No,High,80,Rain,10.931439930478343,16.39715989571751,22.425784089433314,2025-02-13 09:04:17.684227,2025-02-13 09:26:43.231272,Low
"BM Hospital, 5th Main Road, CMWSSB Division 162, Ward 162, Zone 12 Alandur, Alandur, Chennai, Tamil Nadu, 600114, India",12.9887616,80.1904116,"BM Hospital, 5th Main Road, CMWSSB Division 162, Ward 162, Zone 12 Alandur, Alandur, Chennai, Tamil Nadu, 600114, India",16,7,20,No,Low,10,Fog,13.469271455338907,20.20390718300836,29.69109452386448,2025-02-13 09:32:17.684227,2025-02-13 10:01:59.149898,Low
"Dr Bala's Skin clinic, 14, Vanalar Street, CMWSSB Division 165, Ward 165, Zone 12 Alandur, Alandur, Chennai, Tamil Nadu, 600088, India",12.9831959,80.2013573,"Dr Bala's Skin clinic, 14, Vanalar Street, CMWSSB Division 165, Ward 165, Zone 12 Alandur, Alandur, Chennai, Tamil Nadu, 600088, India",10,7,35,Yes,Low,14,Snow,16.525844296539354,24.78876644480903,38.734116289720546,2025-02-13 09:16:17.684227,2025-02-13 09:55:01.731204,Medium
"HOSPICE, Nagi Reddy thottam Garden Rd, Labour Colony, CMWSSB Division 170, Zone 13 Adyar, Chennai, Tamil Nadu, 600001, India",13.015872900000002,80.21345943331696,"HOSPICE, Nagi Reddy thottam Garden Rd, Labour Colony, CMWSSB Division 170, Zone 13 Adyar, Chennai, Tamil Nadu, 600001, India",24,10,25,Yes,Moderate,12,Rain,14.521694667870493,21.78254200180574,35.027184120251206,2025-02-13 09:38:17.684227,2025-02-13 10:13:19.315274,Medium
"Military Hospital, Defence Colony 1st Avenue, CMWSSB Division 201, St. Thomas Mount Cantonment, St.Thomas Mount-Pallavaram Cantonment Board, Alandur, Chennai, Tamil Nadu, 600016, India",13.0194622,80.1972947,"Military Hospital, Defence Colony 1st Avenue, CMWSSB Division 201, St. Thomas Mount Cantonment, St.Thomas Mount-Pallavaram Cantonment Board, Alandur, Chennai, Tamil Nadu, 600016, India",16,7,40,Yes,High,41,Fog,18.333755633171037,27.500633449756556,38.85751569315583,2025-02-13 09:07:17.684227,2025-02-13 09:46:09.135169,High
"Rotary Central Margaret Sidney Hospital, 2nd Main Road, CMWSSB Division 165, Ward 165, Zone 12 Alandur, Alandur, Chennai, Tamil Nadu, 600001, India",12.9837958,80.1932105,"Rotary Central Margaret Sidney Hospital, 2nd Main Road, CMWSSB Division 165, Ward 165, Zone 12 Alandur, Alandur, Chennai, Tamil Nadu, 600001, India",29,7,25,Yes,High,60,Clear,5.5095327494731885,8.264299124209783,22.004594407456423,2025-02-13 09:02:17.684227,2025-02-13 09:24:17.959891,High
"Hariharan Hospital, 29th Street, CMWSSB Division 164, Ward 164, Zone 12 Alandur, Alandur, Chennai, Tamil Nadu, 600061, India",12.9847145,80.1905906,"Hariharan Hospital, 29th Street, CMWSSB Division 164, Ward 164, Zone 12 Alandur, Alandur, Chennai, Tamil Nadu, 600061, India",24,5,25,No,Low,24,Rain,18.213117262514928,27.31967589377239,39.54124842277061,2025-02-13 09:40:17.684227,2025-02-13 10:19:50.159132,Medium
"Bharath Hospital, 72, Nanganallur 1st Main Road, CMWSSB Division 165, Ward 165, Zone 12 Alandur, Alandur, Chennai, Tamil Nadu, 600061, India",12.9823277,80.1937835,"Bharath Hospital, 72, Nanganallur 1st Main Road, CMWSSB Division 165, Ward 165, Zone 12 Alandur, Alandur, Chennai, Tamil Nadu, 600061, India",17,8,35,Yes,Low,20,Rain,9.121763661309036,13.682645491963553,22.572848083133202,2025-02-13 09:00:17.684227,2025-02-13 09:22:52.055112,Low
"Prime Care Nursing Home, Brindavan Nagar Main Road, CMWSSB Division 165, Ward 165, Zone 12 Alandur, Alandur, Chennai, Tamil Nadu, 600042, India",12.9799192,80.2044922,"Prime Care Nursing Home, Brindavan Nagar Main Road, CMWSSB Division 165, Ward 165, Zone 12 Alandur, Alandur, Chennai, Tamil Nadu, 600042, India",20,7,40,Yes,Moderate,16,Fog,10.17299332360864,15.259489985412962,26.051479014146622,2025-02-13 09:21:17.684227,2025-02-13 09:47:20.772968,High
"Dr. Janardhanan Multispeciality Dental Clinic, Nanganallur 4th Main Road, CMWSSB Division 164, Ward 164, Zone 12 Alandur, Alandur, Chennai, Tamil Nadu, 600114, India",12.9842586,80.1886083,"Dr. Janardhanan Multispeciality Dental Clinic, Nanganallur 4th Main Road, CMWSSB Division 164, Ward 164, Zone 12 Alandur, Alandur, Chennai, Tamil Nadu, 600114, India",24,5,30,Yes,Moderate,20,Fog,19.730341981909177,29.595512972863766,36.4018818900395,2025-02-13 09:35:17.684227,2025-02-13 10:11:41.797140,Medium
"Qure Ortho Clinic, Physiotherapy, X Ray & Pharmacy, Brindavan Nagar Main Road, CMWSSB Division 165, Ward 165, Zone 12 Alandur, Alandur, Chennai, Tamil Nadu, 600042, India",12.9794,80.2043658,"Qure Ortho Clinic, Physiotherapy, X Ray & Pharmacy, Brindavan Nagar Main Road, CMWSSB Division 165, Ward 165, Zone 12 Alandur, Alandur, Chennai, Tamil Nadu, 600042, India",23,9,25,No,Low,29,Fog,17.714582602805898,26.571873904208847,35.35869529027649,2025-02-13 08:48:17.684227,2025-02-13 09:23:39.205944,Medium
"Xcellent Care Hospital, RajaLaxmi Nagar 7th Cross Street, RajaLaxmi Nagar, CMWSSB Division 178, Zone 13 Adyar, Chennai, Tamil Nadu, 600042, India",12.9855867,80.21842695262237,"Xcellent Care Hospital, RajaLaxmi Nagar 7th Cross Street, RajaLaxmi Nagar, CMWSSB Division 178, Zone 13 Adyar, Chennai, Tamil Nadu, 600042, India",18,10,35,Yes,Moderate,21,Snow,11.228255618951566,16.84238342842735,22.72437192270894,2025-02-13 09:19:17.684227,2025-02-13 09:42:01.146542,High
"Sri Venkateshwara`s C.M. Hospital, Nanganallur 5th Main Road, CMWSSB Division 167, Ward 167, Zone 12 Alandur, Alandur, Chennai, Tamil Nadu, 600061, India",12.9857914,80.185987,"Sri Venkateshwara`s C.M. Hospital, Nanganallur 5th Main Road, CMWSSB Division 167, Ward 167, Zone 12 Alandur, Alandur, Chennai, Tamil Nadu, 600061, India",11,10,25,Yes,High,47,Fog,12.399735013241035,18.599602519861552,24.97614915767597,2025-02-13 09:18:17.684227,2025-02-13 09:43:16.253176,High
"Dr.Agarwal's Eye Hospital Ltd, Nanganallur, Nanganallur 1st Main Road, CMWSSB Division 164, Ward 164, Zone 12 Alandur, Kanchipuram, Chennai, Tamil Nadu, 600061, India",12.9827844,80.1891661,"Dr.Agarwal's Eye Hospital Ltd, Nanganallur, Nanganallur 1st Main Road, CMWSSB Division 164, Ward 164, Zone 12 Alandur, Kanchipuram, Chennai, Tamil Nadu, 600061, India",27,9,35,No,High,61,Fog,13.962231441374803,20.943347162062203,35.534540188899726,2025-02-13 08:45:17.684227,2025-02-13 09:20:49.756638,Low
"Helios Hospital Pvt Ltd, RajaLaxmi Nagar 7th Cross Street, RajaLaxmi Nagar, CMWSSB Division 178, Zone 13 Adyar, Chennai, Tamil Nadu, 600042, India",12.9855882,80.2189144,"Helios Hospital Pvt Ltd, RajaLaxmi Nagar 7th Cross Street, RajaLaxmi Nagar, CMWSSB Division 178, Zone 13 Adyar, Chennai, Tamil Nadu, 600042, India",16,10,40,Yes,Low,25,Snow,8.74509480697174,13.117642210457609,24.66863974861942,2025-02-13 09:11:17.684227,2025-02-13 09:35:57.802612,Low
"Dr.Agarwals Eye Hospital - Velacherry, Velachery Bypass Road, Gangai Nagar, Ward 177, Zone 13 Adyar, Chennai, Tamil Nadu, 600042, India",12.9832366,80.217509,"Dr.Agarwals Eye Hospital - Velacherry, Velachery Bypass Road, Gangai Nagar, Ward 177, Zone 13 Adyar, Chennai, Tamil Nadu, 600042, India",16,10,35,No,Moderate,12,Fog,17.593277121224943,26.389915681837415,39.60628751703297,2025-02-13 09:00:17.684227,2025-02-13 09:39:54.061478,Medium
"Xcellent Care Superspeciality Hospital, Velachery Bypass Road, Gangai Nagar, CMWSSB Division 178, Zone 13 Adyar, Chennai, Tamil Nadu, 600042, India",12.9833895,80.2181782,"Xcellent Care Superspeciality Hospital, Velachery Bypass Road, Gangai Nagar, CMWSSB Division 178, Zone 13 Adyar, Chennai, Tamil Nadu, 600042, India",11,5,20,Yes,Moderate,16,Fog,10.683907795747027,16.02586169362054,25.207623281439677,2025-02-13 08:57:17.684227,2025-02-13 09:22:30.141624,High
"Palani Balaji Fertility Centre, Velachery Road, Jothiammal Nagar, Ward 171, Zone 13 Adyar, Chennai, Tamil Nadu, 624601, India",13.0122123,80.2235084,"Palani Balaji Fertility Centre, Velachery Road, Jothiammal Nagar, Ward 171, Zone 13 Adyar, Chennai, Tamil Nadu, 624601, India",10,7,30,No,Moderate,28,Rain,19.74455272050285,29.616829080754272,36.65834712566216,2025-02-13 09:30:17.684227,2025-02-13 10:06:57.185055,Low
"Diha Clinic, No 6, Nanganallur 6th Main Road, CMWSSB Division 167, Ward 167, Zone 12 Alandur, Alandur, Chennai, Tamil Nadu, 600061, India",12.98096495,80.18711415874711,"Diha Clinic, No 6, Nanganallur 6th Main Road, CMWSSB Division 167, Ward 167, Zone 12 Alandur, Alandur, Chennai, Tamil Nadu, 600061, India",25,9,40,No,High,74,Fog,14.334565119639954,21.50184767945993,36.3615277324502,2025-02-13 09:26:17.684227,2025-02-13 10:02:39.375891,Low
"No 6, Nanganallur 6th Main Road, CMWSSB Division 167, Ward 167, Zone 12 Alandur, Alandur, Chennai, Tamil Nadu, 600061, India",12.9809491,80.1871116,"No 6, Nanganallur 6th Main Road, CMWSSB Division 167, Ward 167, Zone 12 Alandur, Alandur, Chennai, Tamil Nadu, 600061, India",17,8,25,Yes,Moderate,24,Clear,19.86554745603642,29.798321184054632,40.39188526412278,2025-02-13 09:05:17.684227,2025-02-13 09:45:41.197343,Medium
"Velachery K S Hospital, kalki nagar main road, Ward 178, Zone 13 Adyar, Sholinganallur, Chennai, Tamil Nadu, 600042, India",12.9763914,80.2114016,"Velachery K S Hospital, kalki nagar main road, Ward 178, Zone 13 Adyar, Sholinganallur, Chennai, Tamil Nadu, 600042, India",28,8,40,No,Moderate,14,Snow,16.197129963934586,24.29569494590188,34.34226171996573,2025-02-13 08:57:17.684227,2025-02-13 09:31:38.219930,High
"MIOT International, Miot International Hospital road, CMWSSB Division 157, Ward 157, Zone 12 Alandur, Alandur, Chennai, Tamil Nadu, 600089, India",13.0211808,80.1858412,"MIOT International, Miot International Hospital road, CMWSSB Division 157, Ward 157, Zone 12 Alandur, Alandur, Chennai, Tamil Nadu, 600089, India",22,5,25,No,Moderate,22,Rain,12.422526955961155,18.633790433941734,26.911198860080884,2025-02-13 08:55:17.685227,2025-02-13 09:22:12.357159,High
"Gowri Nursing Home, Kanchipuram, 6th Street, Lakshmi Nagar, CMWSSB Division 167, Ward 167, Zone 12 Alandur, Kanchipuram, Chennai, Tamil Nadu, 600061, India",12.9779713,80.1883923,"Gowri Nursing Home, Kanchipuram, 6th Street, Lakshmi Nagar, CMWSSB Division 167, Ward 167, Zone 12 Alandur, Kanchipuram, Chennai, Tamil Nadu, 600061, India",26,5,30,Yes,Low,23,Fog,6.906935014980757,10.360402522471135,17.370717197401135,2025-02-13 08:51:17.685227,2025-02-13 09:08:39.928259,High
"KS Bone and Joint Clinic - Ortho, Gangai Amman Koil Street, Ward 139, Zone 10 Kodambakkam, Chennai, Tamil Nadu, 600001, India",13.026029,80.212368,"KS Bone and Joint Clinic - Ortho, Gangai Amman Koil Street, Ward 139, Zone 10 Kodambakkam, Chennai, Tamil Nadu, 600001, India",27,7,40,Yes,Moderate,14,Clear,7.603536764880075,11.405305147320112,22.836802734909654,2025-02-13 08:46:17.685227,2025-02-13 09:09:07.893391,Low
"Gowri Nursing Home, 100ft Road, Ward 168, Zone 14 Perungudi, Alandur, Chennai, Tamil Nadu, 600061, India",12.9774071,80.18833045104813,"Gowri Nursing Home, 100ft Road, Ward 168, Zone 14 Perungudi, Alandur, Chennai, Tamil Nadu, 600061, India",12,6,30,No,Low,14,Rain,5.366500084319533,8.0497501264793,17.05200425896295,2025-02-13 09:33:17.685227,2025-02-13 09:50:20.805483,High
"Pankajam Memorial Hospital, Nanganallur 100 Feet Road, CMWSSB Division 167, Ward 167, Zone 12 Alandur, Kanchipuram, Chennai, Tamil Nadu, 600061, India",12.9801472,80.1835965,"Pankajam Memorial Hospital, Nanganallur 100 Feet Road, CMWSSB Division 167, Ward 167, Zone 12 Alandur, Kanchipuram, Chennai, Tamil Nadu, 600061, India",29,8,40,No,Low,29,Clear,14.075870635628297,21.113805953442444,28.802010792124136,2025-02-13 09:24:17.685227,2025-02-13 09:53:05.805875,Low
"Sri Chakra Hospital, Nanganallur 100ft Road, CMWSSB Division 167, Ward 167, Zone 12 Alandur, Alandur, Chennai, Tamil Nadu, 600061, India",12.9786524,80.1850278,"Sri Chakra Hospital, Nanganallur 100ft Road, CMWSSB Division 167, Ward 167, Zone 12 Alandur, Alandur, Chennai, Tamil Nadu, 600061, India",13,9,40,Yes,Low,18,Snow,18.121723137737547,27.18258470660632,37.019781484055656,2025-02-13 08:52:17.685227,2025-02-13 09:29:18.872116,High
"Srichakara Multispeciality Hospital, Nanganallur 100ft Road, CMWSSB Division 167, Ward 167, Zone 12 Alandur, Alandur, Chennai, Tamil Nadu, 600061, India",12.97853,80.1851381,"Srichakara Multispeciality Hospital, Nanganallur 100ft Road, CMWSSB Division 167, Ward 167, Zone 12 Alandur, Alandur, Chennai, Tamil Nadu, 600061, India",14,8,20,No,Low,18,Fog,11.221729356513757,16.832594034770636,23.419302070202214,2025-02-13 09:26:17.685227,2025-02-13 09:49:42.843351,Low
"Hindu Mission Health Services, Kanchipuram, Nanganallur 100ft Road, CMWSSB Division 167, Ward 167, Zone 12 Alandur, Kanchipuram, Chennai, Tamil Nadu, 603209, India",12.9787682,80.1846471,"Hindu Mission Health Services, Kanchipuram, Nanganallur 100ft Road, CMWSSB Division 167, Ward 167, Zone 12 Alandur, Kanchipuram, Chennai, Tamil Nadu, 603209, India",25,10,20,No,High,50,Fog,5.28143367002932,7.922150505043979,18.140486130411382,2025-02-13 08:51:17.685227,2025-02-13 09:09:26.114395,Low
"Nivas Skin Clinic, Inner Ring Road, CMWSSB Division 138, Zone 10 Kodambakkam, Chennai, Tamil Nadu, 600001, India",13.0289663,80.2085951,"Nivas Skin Clinic, Inner Ring Road, CMWSSB Division 138, Zone 10 Kodambakkam, Chennai, Tamil Nadu, 600001, India",91,19,25,Yes,Moderate,20,Snow,13.412689933430807,20.119034900146207,25.533467376044577,2025-02-13 09:04:17.685227,2025-02-13 09:29:49.693270,Low
"சைதாப்பேட்டை அரசு மருத்துவமனை, Jeenis Road, Ward 142, Zone 10 Kodambakkam, Chennai, Tamil Nadu, 600015, India",13.02044625,80.22405105438145,"சைதாப்பேட்டை அரசு மருத்துவமனை, Jeenis Road, Ward 142, Zone 10 Kodambakkam, Chennai, Tamil Nadu, 600015, India",160,61,25,Yes,High,49,Snow,19.25603489303332,28.88405233954998,41.140799996661066,2025-02-13 09:35:17.685227,2025-02-13 10:16:26.133227,High
"Bora Hospital, Vadhyar Subbraya mudali street, Saidapet, Zone 10 Kodambakkam, Chennai, Tamil Nadu, 600015, India",13.02231095,80.2222779,"Bora Hospital, Vadhyar Subbraya mudali street, Saidapet, Zone 10 Kodambakkam, Chennai, Tamil Nadu, 600015, India",58,10,20,No,Low,15,Fog,9.082825036398782,13.624237554598174,19.050564418851373,2025-02-13 09:03:17.685227,2025-02-13 09:22:20.719092,High
"Prashanth Hospitals, 36, Velachery Main Road, JagannathaPuram, CMWSSB Division 179, Zone 13 Adyar, Chennai, Tamil Nadu, 600042, India",12.9784544,80.2214698,"Prashanth Hospitals, 36, Velachery Main Road, JagannathaPuram, CMWSSB Division 179, Zone 13 Adyar, Chennai, Tamil Nadu, 600042, India",17,7,35,Yes,Moderate,19,Rain,5.539329976279071,8.308994964418607,14.497618109716342,2025-02-13 08:55:17.685227,2025-02-13 09:09:47.542314,High
"Nalam Hospital, Manapakkam Main Road, CMWSSB Division 157, Ward 157, Zone 12 Alandur, Mugalivakkam, Chengalpattu, Chennai, Tamil Nadu, 600116, India",13.0164671,80.1772853,"Nalam Hospital, Manapakkam Main Road, CMWSSB Division 157, Ward 157, Zone 12 Alandur, Mugalivakkam, Chengalpattu, Chennai, Tamil Nadu, 600116, India",17,6,40,Yes,Low,27,Fog,9.832823340042243,14.749235010063364,26.337588669062534,2025-02-13 09:05:17.685227,2025-02-13 09:31:37.940547,High
"Chennai Corporation 24 Hours Maternity Hospital, Jeenis Road, Ward 142, Zone 10 Kodambakkam, Chennai, Tamil Nadu, 600015, India",13.0208822,80.22412781839571,"Chennai Corporation 24 Hours Maternity Hospital, Jeenis Road, Ward 142, Zone 10 Kodambakkam, Chennai, Tamil Nadu, 600015, India",149,96,30,No,Low,28,Clear,11.635683783358274,17.45352567503741,26.02614407520988,2025-02-13 09:33:17.685227,2025-02-13 09:59:19.253872,Low
"Dhanraj Hospital, Karpaga Vinayakar Koil Street, CMWSSB Division 160, Ward 160, Zone 12 Alandur, Chengalpattu, Chennai, Tamil Nadu, 600016, India",13.0017797,80.2033269,"Dhanraj Hospital, Karpaga Vinayakar Koil Street, CMWSSB Division 160, Ward 160, Zone 12 Alandur, Chengalpattu, Chennai, Tamil Nadu, 600016, India",24,6,25,Yes,High,32,Clear,15.448847150753434,23.17327072613015,29.53193405318677,2025-02-13 09:08:17.685227,2025-02-13 09:37:49.601270,Low
"Cu Shah Sankara Netralaya, Station Road, CMWSSB Division 201, St. Thomas Mount Cantonment, Zone 12 Alandur, St.Thomas Mount-Pallavaram Cantonment Board, Kanchipuram, Chennai, Tamil Nadu, 600016, India",13.0012687,80.2001283,"Cu Shah Sankara Netralaya, Station Road, CMWSSB Division 201, St. Thomas Mount Cantonment, Zone 12 Alandur, St.Thomas Mount-Pallavaram Cantonment Board, Kanchipuram, Chennai, Tamil Nadu, 600016, India",17,6,35,No,Moderate,17,Rain,5.275204458779302,7.912806688168954,21.021717780485524,2025-02-13 09:20:17.685227,2025-02-13 09:41:18.988294,High
"S.S. Hospital, Sowri street, CMWSSB Division 160, Ward 160, Zone 12 Alandur, Chengalpattu, Chennai, Tamil Nadu, 600016, India",13.0036449,80.2030844,"S.S. Hospital, Sowri street, CMWSSB Division 160, Ward 160, Zone 12 Alandur, Chengalpattu, Chennai, Tamil Nadu, 600016, India",13,7,25,Yes,Low,22,Rain,12.444398787349161,18.666598181023744,30.091920927262994,2025-02-13 09:40:17.685227,2025-02-13 10:10:23.200483,Medium
"Government Hospital Alandur, Vishnu Street, CMWSSB Division 160, Ward 160, Zone 12 Alandur, St. Thomas Mount Cantonment, Alandur, Chennai, Tamil Nadu, 600016, India",13.0048164,80.2025432,"Government Hospital Alandur, Vishnu Street, CMWSSB Division 160, Ward 160, Zone 12 Alandur, St. Thomas Mount Cantonment, Alandur, Chennai, Tamil Nadu, 600016, India",30,9,40,Yes,Low,24,Clear,18.713919834297265,28.070879751445897,40.94980631843441,2025-02-13 09:06:17.685227,2025-02-13 09:47:14.673606,High
"Kaanthi Makapperu Hospital, Sowri street, CMWSSB Division 160, Ward 160, Zone 12 Alandur, Chengalpattu, Chennai, Tamil Nadu, 600016, India",13.003406,80.2063632,"Kaanthi Makapperu Hospital, Sowri street, CMWSSB Division 160, Ward 160, Zone 12 Alandur, Chengalpattu, Chennai, Tamil Nadu, 600016, India",11,6,30,Yes,Low,29,Snow,9.672126588120378,14.508189882180567,20.326178403863572,2025-02-13 09:32:17.685227,2025-02-13 09:52:37.255931,Medium
"Jaya Sri Hospital, MKN Road, CMWSSB Division 160, Ward 160, Zone 12 Alandur, St.Thomas Mount-Pallavaram Cantonment Board, Chengalpattu, Chennai, Tamil Nadu, 600016, India",13.0027883,80.207025,"Jaya Sri Hospital, MKN Road, CMWSSB Division 160, Ward 160, Zone 12 Alandur, St.Thomas Mount-Pallavaram Cantonment Board, Chengalpattu, Chennai, Tamil Nadu, 600016, India",18,9,40,Yes,Low,17,Clear,9.255966417217628,13.883949625826443,26.27566684222403,2025-02-13 09:38:17.685227,2025-02-13 10:04:34.225238,Low
"G. R. Hospital & Fertility Centre, City Link Road, CMWSSB Division 160, Zone 13 Adyar, Zone 12 Alandur, Alandur, Chennai, Tamil Nadu, 600088, India",12.9952982,80.2068955,"G. R. Hospital & Fertility Centre, City Link Road, CMWSSB Division 160, Zone 13 Adyar, Zone 12 Alandur, Alandur, Chennai, Tamil Nadu, 600088, India",17,8,25,No,Low,28,Fog,7.7227940095011585,11.584191014251738,22.0098611456935,2025-02-13 09:38:17.685227,2025-02-13 10:00:18.276896,Medium
"Balaji Hospital (P) Ltd, Anna Salai (Mount Road), Ward 170, Zone 13 Adyar, Alandur, Chennai, Tamil Nadu, 600032, India",13.00738175,80.20608622840193,"Balaji Hospital (P) Ltd, Anna Salai (Mount Road), Ward 170, Zone 13 Adyar, Alandur, Chennai, Tamil Nadu, 600032, India",12,10,35,No,High,66,Rain,10.430824222076172,15.646236333114258,27.03212640131023,2025-02-13 09:22:17.685227,2025-02-13 09:49:19.612811,Medium
"SP Hospital, Mount - Medavakkam Road, CMWSSB Division 163, Ward 163, Zone 12 Alandur, Kanchipuram, Chennai, Tamil Nadu, 600088, India",12.9933638,80.2009134,"SP Hospital, Mount - Medavakkam Road, CMWSSB Division 163, Ward 163, Zone 12 Alandur, Kanchipuram, Chennai, Tamil Nadu, 600088, India",25,6,25,Yes,High,64,Snow,11.300939265290733,16.951408897936098,22.139175193507604,2025-02-13 08:47:17.685227,2025-02-13 09:09:26.035739,Low
"Ponmalligai Hospital Pvt Ltd, Kakkan Nagar Main Road, Ward 177, Zone 13 Adyar, Zone 12 Alandur, Kanchipuram, Chennai, Tamil Nadu, 600088, India",12.9925116,80.2061465,"Ponmalligai Hospital Pvt Ltd, Kakkan Nagar Main Road, Ward 177, Zone 13 Adyar, Zone 12 Alandur, Kanchipuram, Chennai, Tamil Nadu, 600088, India",18,10,35,No,Moderate,21,Clear,7.946848642345975,11.920272963518963,24.775076986653122,2025-02-13 08:54:17.685227,2025-02-13 09:19:04.189846,High
"K P Childrens Hospital And Neuro Centre, Mount - Medavakkam Road, CMWSSB Division 163, Ward 163, Zone 12 Alandur, Kanchipuram, Chennai, Tamil Nadu, 600088, India",12.9911179,80.1986745,"K P Childrens Hospital And Neuro Centre, Mount - Medavakkam Road, CMWSSB Division 163, Ward 163, Zone 12 Alandur, Kanchipuram, Chennai, Tamil Nadu, 600088, India",20,7,20,No,Moderate,28,Snow,16.821291127041597,25.231936690562396,38.91980796415699,2025-02-13 09:13:17.685227,2025-02-13 09:52:12.873705,Low
"Cantonment General Hospital, Magazine Road, CMWSSB Division 201, St. Thomas Mount Cantonment, Zone 12 Alandur, St.Thomas Mount-Pallavaram Cantonment Board, Alandur, Chennai, Tamil Nadu, 600016, India",13.0096653,80.19501478878405,"Cantonment General Hospital, Magazine Road, CMWSSB Division 201, St. Thomas Mount Cantonment, Zone 12 Alandur, St.Thomas Mount-Pallavaram Cantonment Board, Alandur, Chennai, Tamil Nadu, 600016, India",21,7,25,Yes,Low,17,Rain,17.012445813535358,25.518668720303037,36.401553225920935,2025-02-13 09:25:17.685227,2025-02-13 10:01:41.778421,Low
"Magazine Road, CMWSSB Division 201, St. Thomas Mount Cantonment, Zone 12 Alandur, St.Thomas Mount-Pallavaram Cantonment Board, Alandur, Chennai, Tamil Nadu, 600016, India",13.009781,80.1949734,"Magazine Road, CMWSSB Division 201, St. Thomas Mount Cantonment, Zone 12 Alandur, St.Thomas Mount-Pallavaram Cantonment Board, Alandur, Chennai, Tamil Nadu, 600016, India",24,8,40,No,High,35,Snow,17.99048334249988,26.985725013749818,40.233007212252,2025-02-13 09:32:17.685227,2025-02-13 10:12:31.665660,Medium
"Rathna Hospital, St Patricks Church Road, CMWSSB Division 201, St. Thomas Mount Cantonment, Zone 12 Alandur, St. Thomas Mount Cantonment, Chengalpattu, Chennai, Tamil Nadu, 600016, India",13.0087475,80.1937172,"Rathna Hospital, St Patricks Church Road, CMWSSB Division 201, St. Thomas Mount Cantonment, Zone 12 Alandur, St. Thomas Mount Cantonment, Chengalpattu, Chennai, Tamil Nadu, 600016, India",11,7,20,Yes,High,40,Clear,18.03700556191988,27.055508342879822,37.76095432935145,2025-02-13 09:00:17.685227,2025-02-13 09:38:03.342487,Low
"St. Thomas Hospital, Defence Colony Road, CMWSSB Division 201, St. Thomas Mount Cantonment, St.Thomas Mount-Pallavaram Cantonment Board, Kanchipuram, Chennai, Tamil Nadu, 600016, India",13.0122733,80.196428,"St. Thomas Hospital, Defence Colony Road, CMWSSB Division 201, St. Thomas Mount Cantonment, St.Thomas Mount-Pallavaram Cantonment Board, Kanchipuram, Chennai, Tamil Nadu, 600016, India",97,42,35,Yes,Low,25,Clear,14.236601644391786,21.35490246658768,27.70641610694231,2025-02-13 09:10:17.685227,2025-02-13 09:38:00.070193,High
"Military Hospital, 2nd Seven Wells Street, CMWSSB Division 158, Ward 158, Zone 12 Alandur, Alandur, Chennai, Tamil Nadu, 600016, India",13.0117736,80.1941708,"Military Hospital, 2nd Seven Wells Street, CMWSSB Division 158, Ward 158, Zone 12 Alandur, Alandur, Chennai, Tamil Nadu, 600016, India",18,9,25,No,Moderate,16,Snow,15.98354855347773,23.975322830216598,29.069791605370725,2025-02-13 09:25:17.685227,2025-02-13 09:54:21.872723,Low
"BM Hospital, 5th Main Road, CMWSSB Division 162, Ward 162, Zone 12 Alandur, Alandur, Chennai, Tamil Nadu, 600114, India",12.9887616,80.1904116,"BM Hospital, 5th Main Road, CMWSSB Division 162, Ward 162, Zone 12 Alandur, Alandur, Chennai, Tamil Nadu, 600114, India",15,5,35,Yes,Low,13,Clear,17.284716066981233,25.92707410047185,40.52096032755798,2025-02-13 09:01:17.686227,2025-02-13 09:41:48.943847,Low
"Dr Bala's Skin clinic, 14, Vanalar Street, CMWSSB Division 165, Ward 165, Zone 12 Alandur, Alandur, Chennai, Tamil Nadu, 600088, India",12.9831959,80.2013573,"Dr Bala's Skin clinic, 14, Vanalar Street, CMWSSB Division 165, Ward 165, Zone 12 Alandur, Alandur, Chennai, Tamil Nadu, 600088, India",20,7,30,No,High,72,Rain,14.742102687495656,22.113154031243482,31.720929773149773,2025-02-13 09:36:17.686227,2025-02-13 10:08:00.942013,High
"HOSPICE, Nagi Reddy thottam Garden Rd, Labour Colony, CMWSSB Division 170, Zone 13 Adyar, Chennai, Tamil Nadu, 600001, India",13.015872900000002,80.21345943331696,"HOSPICE, Nagi Reddy thottam Garden Rd, Labour Colony, CMWSSB Division 170, Zone 13 Adyar, Chennai, Tamil Nadu, 600001, India",24,8,40,Yes,Moderate,13,Rain,9.6368481771709,14.455272265756351,22.45836126362662,2025-02-13 09:15:17.686227,2025-02-13 09:37:45.187903,High
"Military Hospital, Defence Colony 1st Avenue, CMWSSB Division 201, St. Thomas Mount Cantonment, St.Thomas Mount-Pallavaram Cantonment Board, Alandur, Chennai, Tamil Nadu, 600016, India",13.0194622,80.1972947,"Military Hospital, Defence Colony 1st Avenue, CMWSSB Division 201, St. Thomas Mount Cantonment, St.Thomas Mount-Pallavaram Cantonment Board, Alandur, Chennai, Tamil Nadu, 600016, India",17,7,20,No,High,38,Rain,16.64811546619539,24.97217319929308,34.711247417616214,2025-02-13 09:02:17.686227,2025-02-13 09:37:00.361072,Low
"Rotary Central Margaret Sidney Hospital, 2nd Main Road, CMWSSB Division 165, Ward 165, Zone 12 Alandur, Alandur, Chennai, Tamil Nadu, 600001, India",12.9837958,80.1932105,"Rotary Central Margaret Sidney Hospital, 2nd Main Road, CMWSSB Division 165, Ward 165, Zone 12 Alandur, Alandur, Chennai, Tamil Nadu, 600001, India",18,7,35,Yes,High,48,Fog,14.604400439748847,21.906600659623273,31.13358058962562,2025-02-13 09:25:17.686227,2025-02-13 09:56:25.701062,High
"Hariharan Hospital, 29th Street, CMWSSB Division 164, Ward 164, Zone 12 Alandur, Alandur, Chennai, Tamil Nadu, 600061, India",12.9847145,80.1905906,"Hariharan Hospital, 29th Street, CMWSSB Division 164, Ward 164, Zone 12 Alandur, Alandur, Chennai, Tamil Nadu, 600061, India",26,5,35,No,Low,11,Fog,14.533223827990378,21.799835741985568,29.79210403246641,2025-02-13 09:05:17.686227,2025-02-13 09:35:05.212469,Low
"Bharath Hospital, 72, Nanganallur 1st Main Road, CMWSSB Division 165, Ward 165, Zone 12 Alandur, Alandur, Chennai, Tamil Nadu, 600061, India",12.9823277,80.1937835,"Bharath Hospital, 72, Nanganallur 1st Main Road, CMWSSB Division 165, Ward 165, Zone 12 Alandur, Alandur, Chennai, Tamil Nadu, 600061, India",21,5,35,Yes,Moderate,24,Fog,13.420223417084648,20.13033512562697,33.79696152241309,2025-02-13 09:12:17.686227,2025-02-13 09:46:05.503918,Low
"Prime Care Nursing Home, Brindavan Nagar Main Road, CMWSSB Division 165, Ward 165, Zone 12 Alandur, Alandur, Chennai, Tamil Nadu, 600042, India",12.9799192,80.2044922,"Prime Care Nursing Home, Brindavan Nagar Main Road, CMWSSB Division 165, Ward 165, Zone 12 Alandur, Alandur, Chennai, Tamil Nadu, 600042, India",13,5,20,No,High,75,Rain,15.34676356763311,23.020145351449667,33.26876910205448,2025-02-13 09:08:17.686227,2025-02-13 09:41:33.812373,Medium
"Dr. Janardhanan Multispeciality Dental Clinic, Nanganallur 4th Main Road, CMWSSB Division 164, Ward 164, Zone 12 Alandur, Alandur, Chennai, Tamil Nadu, 600114, India",12.9842586,80.1886083,"Dr. Janardhanan Multispeciality Dental Clinic, Nanganallur 4th Main Road, CMWSSB Division 164, Ward 164, Zone 12 Alandur, Alandur, Chennai, Tamil Nadu, 600114, India",11,7,30,No,Low,16,Rain,8.709813360412443,13.064720040618665,27.115339972316825,2025-02-13 08:47:17.686227,2025-02-13 09:14:24.606625,Medium
"Qure Ortho Clinic, Physiotherapy, X Ray & Pharmacy, Brindavan Nagar Main Road, CMWSSB Division 165, Ward 165, Zone 12 Alandur, Alandur, Chennai, Tamil Nadu, 600042, India",12.9794,80.2043658,"Qure Ortho Clinic, Physiotherapy, X Ray & Pharmacy, Brindavan Nagar Main Road, CMWSSB Division 165, Ward 165, Zone 12 Alandur, Alandur, Chennai, Tamil Nadu, 600042, India",12,10,20,No,Low,27,Snow,16.285563254900726,24.428344882351087,37.36426273269306,2025-02-13 09:10:17.686227,2025-02-13 09:47:39.541991,High
"Xcellent Care Hospital, RajaLaxmi Nagar 7th Cross Street, RajaLaxmi Nagar, CMWSSB Division 178, Zone 13 Adyar, Chennai, Tamil Nadu, 600042, India",12.9855867,80.21842695262237,"Xcellent Care Hospital, RajaLaxmi Nagar 7th Cross Street, RajaLaxmi Nagar, CMWSSB Division 178, Zone 13 Adyar, Chennai, Tamil Nadu, 600042, India",22,8,40,Yes,Low,27,Rain,13.110804071511438,19.666206107267158,26.38052560602492,2025-02-13 09:24:17.686227,2025-02-13 09:50:40.517763,High
"Sri Venkateshwara`s C.M. Hospital, Nanganallur 5th Main Road, CMWSSB Division 167, Ward 167, Zone 12 Alandur, Alandur, Chennai, Tamil Nadu, 600061, India",12.9857914,80.185987,"Sri Venkateshwara`s C.M. Hospital, Nanganallur 5th Main Road, CMWSSB Division 167, Ward 167, Zone 12 Alandur, Alandur, Chennai, Tamil Nadu, 600061, India",21,9,20,No,Moderate,15,Rain,18.752203528960578,28.128305293440867,42.38187038458764,2025-02-13 09:21:17.686227,2025-02-13 10:03:40.598450,Medium
"Dr.Agarwal's Eye Hospital Ltd, Nanganallur, Nanganallur 1st Main Road, CMWSSB Division 164, Ward 164, Zone 12 Alandur, Kanchipuram, Chennai, Tamil Nadu, 600061, India",12.9827844,80.1891661,"Dr.Agarwal's Eye Hospital Ltd, Nanganallur, Nanganallur 1st Main Road, CMWSSB Division 164, Ward 164, Zone 12 Alandur, Kanchipuram, Chennai, Tamil Nadu, 600061, India",29,5,30,Yes,Moderate,14,Rain,19.719468352908176,29.579202529362263,36.22058605116735,2025-02-13 09:12:17.686227,2025-02-13 09:48:30.921390,Low
"Helios Hospital Pvt Ltd, RajaLaxmi Nagar 7th Cross Street, RajaLaxmi Nagar, CMWSSB Division 178, Zone 13 Adyar, Chennai, Tamil Nadu, 600042, India",12.9855882,80.2189144,"Helios Hospital Pvt Ltd, RajaLaxmi Nagar 7th Cross Street, RajaLaxmi Nagar, CMWSSB Division 178, Zone 13 Adyar, Chennai, Tamil Nadu, 600042, India",12,7,20,No,Moderate,29,Snow,5.004948246466968,7.5074223697004525,12.919182143391259,2025-02-13 09:08:17.686227,2025-02-13 09:21:12.837156,High
"Dr.Agarwals Eye Hospital - Velacherry, Velachery Bypass Road, Gangai Nagar, Ward 177, Zone 13 Adyar, Chennai, Tamil Nadu, 600042, India",12.9832366,80.217509,"Dr.Agarwals Eye Hospital - Velacherry, Velachery Bypass Road, Gangai Nagar, Ward 177, Zone 13 Adyar, Chennai, Tamil Nadu, 600042, India",29,5,20,Yes,Low,11,Rain,11.05978891514663,16.589683372719943,25.52416145376899,2025-02-13 09:30:17.686227,2025-02-13 09:55:49.135914,Low
"Xcellent Care Superspeciality Hospital, Velachery Bypass Road, Gangai Nagar, CMWSSB Division 178, Zone 13 Adyar, Chennai, Tamil Nadu, 600042, India",12.9833895,80.2181782,"Xcellent Care Superspeciality Hospital, Velachery Bypass Road, Gangai Nagar, CMWSSB Division 178, Zone 13 Adyar, Chennai, Tamil Nadu, 600042, India",16,8,35,No,High,64,Snow,9.858286313133046,14.78742946969957,27.485971676762546,2025-02-13 08:55:17.686227,2025-02-13 09:22:46.844528,Medium
"Palani Balaji Fertility Centre, Velachery Road, Jothiammal Nagar, Ward 171, Zone 13 Adyar, Chennai, Tamil Nadu, 624601, India",13.0122123,80.2235084,"Palani Balaji Fertility Centre, Velachery Road, Jothiammal Nagar, Ward 171, Zone 13 Adyar, Chennai, Tamil Nadu, 624601, India",14,7,20,No,High,57,Clear,16.45668259318435,24.685023889776527,30.615487657497482,2025-02-13 09:29:17.686227,2025-02-13 09:59:54.615486,Medium
"Diha Clinic, No 6, Nanganallur 6th Main Road, CMWSSB Division 167, Ward 167, Zone 12 Alandur, Alandur, Chennai, Tamil Nadu, 600061, India",12.98096495,80.18711415874711,"Diha Clinic, No 6, Nanganallur 6th Main Road, CMWSSB Division 167, Ward 167, Zone 12 Alandur, Alandur, Chennai, Tamil Nadu, 600061, India",19,7,20,No,High,56,Rain,10.902446649134571,16.35366997370186,26.54854185817942,2025-02-13 09:38:17.686227,2025-02-13 10:04:50.598738,Low
"No 6, Nanganallur 6th Main Road, CMWSSB Division 167, Ward 167, Zone 12 Alandur, Alandur, Chennai, Tamil Nadu, 600061, India",12.9809491,80.1871116,"No 6, Nanganallur 6th Main Road, CMWSSB Division 167, Ward 167, Zone 12 Alandur, Alandur, Chennai, Tamil Nadu, 600061, India",15,10,20,No,High,76,Snow,7.155701573926811,10.733552360890215,20.168344757901686,2025-02-13 09:31:17.686227,2025-02-13 09:51:27.786912,Low
"Velachery K S Hospital, kalki nagar main road, Ward 178, Zone 13 Adyar, Sholinganallur, Chennai, Tamil Nadu, 600042, India",12.9763914,80.2114016,"Velachery K S Hospital, kalki nagar main road, Ward 178, Zone 13 Adyar, Sholinganallur, Chennai, Tamil Nadu, 600042, India",10,7,40,No,Low,12,Fog,14.952275818172605,22.428413727258906,28.129979286171107,2025-02-13 09:24:17.686227,2025-02-13 09:52:25.484984,High
"MIOT International, Miot International Hospital road, CMWSSB Division 157, Ward 157, Zone 12 Alandur, Alandur, Chennai, Tamil Nadu, 600089, India",13.0211808,80.1858412,"MIOT International, Miot International Hospital road, CMWSSB Division 157, Ward 157, Zone 12 Alandur, Alandur, Chennai, Tamil Nadu, 600089, India",24,9,30,Yes,High,33,Rain,16.3051414521325,24.457712178198747,35.56161491675183,2025-02-13 08:47:17.686227,2025-02-13 09:22:51.383122,Medium
"Gowri Nursing Home, Kanchipuram, 6th Street, Lakshmi Nagar, CMWSSB Division 167, Ward 167, Zone 12 Alandur, Kanchipuram, Chennai, Tamil Nadu, 600061, India",12.9779713,80.1883923,"Gowri Nursing Home, Kanchipuram, 6th Street, Lakshmi Nagar, CMWSSB Division 167, Ward 167, Zone 12 Alandur, Kanchipuram, Chennai, Tamil Nadu, 600061, India",29,5,35,Yes,Low,26,Snow,11.757122369779678,17.635683554669516,26.21692061334045,2025-02-13 09:19:17.686227,2025-02-13 09:45:30.701464,Low
"KS Bone and Joint Clinic - Ortho, Gangai Amman Koil Street, Ward 139, Zone 10 Kodambakkam, Chennai, Tamil Nadu, 600001, India",13.026029,80.212368,"KS Bone and Joint Clinic - Ortho, Gangai Amman Koil Street, Ward 139, Zone 10 Kodambakkam, Chennai, Tamil Nadu, 600001, India",27,6,25,Yes,Low,22,Clear,5.338732845754956,8.008099268632435,22.49281441054097,2025-02-13 09:29:17.686227,2025-02-13 09:51:47.255092,High
"Gowri Nursing Home, 100ft Road, Ward 168, Zone 14 Perungudi, Alandur, Chennai, Tamil Nadu, 600061, India",12.9774071,80.18833045104813,"Gowri Nursing Home, 100ft Road, Ward 168, Zone 14 Perungudi, Alandur, Chennai, Tamil Nadu, 600061, India",19,5,35,Yes,High,63,Rain,18.412402675312535,27.618604012968802,37.73171611616438,2025-02-13 09:03:17.686227,2025-02-13 09:41:01.589194,Low
"Pankajam Memorial Hospital, Nanganallur 100 Feet Road, CMWSSB Division 167, Ward 167, Zone 12 Alandur, Kanchipuram, Chennai, Tamil Nadu, 600061, India",12.9801472,80.1835965,"Pankajam Memorial Hospital, Nanganallur 100 Feet Road, CMWSSB Division 167, Ward 167, Zone 12 Alandur, Kanchipuram, Chennai, Tamil Nadu, 600061, India",10,8,25,Yes,Low,15,Clear,15.744696507874714,23.61704476181207,36.82802044416448,2025-02-13 09:25:17.686227,2025-02-13 10:02:07.367454,Low
"Sri Chakra Hospital, Nanganallur 100ft Road, CMWSSB Division 167, Ward 167, Zone 12 Alandur, Alandur, Chennai, Tamil Nadu, 600061, India",12.9786524,80.1850278,"Sri Chakra Hospital, Nanganallur 100ft Road, CMWSSB Division 167, Ward 167, Zone 12 Alandur, Alandur, Chennai, Tamil Nadu, 600061, India",19,9,40,No,High,35,Snow,10.561684393045251,15.842526589567878,29.141822870723587,2025-02-13 08:58:17.686227,2025-02-13 09:27:26.195599,High
"Srichakara Multispeciality Hospital, Nanganallur 100ft Road, CMWSSB Division 167, Ward 167, Zone 12 Alandur, Alandur, Chennai, Tamil Nadu, 600061, India",12.97853,80.1851381,"Srichakara Multispeciality Hospital, Nanganallur 100ft Road, CMWSSB Division 167, Ward 167, Zone 12 Alandur, Alandur, Chennai, Tamil Nadu, 600061, India",10,5,20,Yes,Moderate,14,Clear,19.539282859552255,29.308924289328385,38.22713162681323,2025-02-13 08:48:17.686227,2025-02-13 09:26:31.314125,High
"Hindu Mission Health Services, Kanchipuram, Nanganallur 100ft Road, CMWSSB Division 167, Ward 167, Zone 12 Alandur, Kanchipuram, Chennai, Tamil Nadu, 603209, India",12.9787682,80.1846471,"Hindu Mission Health Services, Kanchipuram, Nanganallur 100ft Road, CMWSSB Division 167, Ward 167, Zone 12 Alandur, Kanchipuram, Chennai, Tamil Nadu, 603209, India",23,10,40,Yes,High,36,Clear,14.72047304433071,22.080709566496065,36.41571310406587,2025-02-13 09:26:17.686227,2025-02-13 10:02:42.629013,Medium
"Nivas Skin Clinic, Inner Ring Road, CMWSSB Division 138, Zone 10 Kodambakkam, Chennai, Tamil Nadu, 600001, India",13.0289663,80.2085951,"Nivas Skin Clinic, Inner Ring Road, CMWSSB Division 138, Zone 10 Kodambakkam, Chennai, Tamil Nadu, 600001, India",57,34,35,No,Moderate,22,Fog,18.18887548423603,27.283313226354043,34.84694667105292,2025-02-13 09:25:17.686227,2025-02-13 10:00:08.503027,Medium
"சைதாப்பேட்டை அரசு மருத்துவமனை, Jeenis Road, Ward 142, Zone 10 Kodambakkam, Chennai, Tamil Nadu, 600015, India",13.02044625,80.22405105438145,"சைதாப்பேட்டை அரசு மருத்துவமனை, Jeenis Road, Ward 142, Zone 10 Kodambakkam, Chennai, Tamil Nadu, 600015, India",116,71,35,No,High,71,Snow,13.981732055501356,20.97259808325203,31.56096807891291,2025-02-13 09:21:17.686227,2025-02-13 09:52:51.344312,Low
"Bora Hospital, Vadhyar Subbraya mudali street, Saidapet, Zone 10 Kodambakkam, Chennai, Tamil Nadu, 600015, India",13.02231095,80.2222779,"Bora Hospital, Vadhyar Subbraya mudali street, Saidapet, Zone 10 Kodambakkam, Chennai, Tamil Nadu, 600015, India",39,20,30,No,Low,17,Fog,7.957584642397997,11.936376963596995,26.32794782665468,2025-02-13 09:35:17.686227,2025-02-13 10:01:37.363097,Low
"Prashanth Hospitals, 36, Velachery Main Road, JagannathaPuram, CMWSSB Division 179, Zone 13 Adyar, Chennai, Tamil Nadu, 600042, India",12.9784544,80.2214698,"Prashanth Hospitals, 36, Velachery Main Road, JagannathaPuram, CMWSSB Division 179, Zone 13 Adyar, Chennai, Tamil Nadu, 600042, India",10,10,25,No,Moderate,12,Fog,15.653926043487578,23.480889065231366,37.123883598320475,2025-02-13 09:34:17.686227,2025-02-13 10:11:25.119243,High
"Nalam Hospital, Manapakkam Main Road, CMWSSB Division 157, Ward 157, Zone 12 Alandur, Mugalivakkam, Chengalpattu, Chennai, Tamil Nadu, 600116, India",13.0164671,80.1772853,"Nalam Hospital, Manapakkam Main Road, CMWSSB Division 157, Ward 157, Zone 12 Alandur, Mugalivakkam, Chengalpattu, Chennai, Tamil Nadu, 600116, India",17,10,20,Yes,High,57,Clear,17.259044574354327,25.88856686153149,34.67979215309036,2025-02-13 09:26:17.687227,2025-02-13 10:00:58.474756,Low
"Chennai Corporation 24 Hours Maternity Hospital, Jeenis Road, Ward 142, Zone 10 Kodambakkam, Chennai, Tamil Nadu, 600015, India",13.0208822,80.22412781839571,"Chennai Corporation 24 Hours Maternity Hospital, Jeenis Road, Ward 142, Zone 10 Kodambakkam, Chennai, Tamil Nadu, 600015, India",175,56,25,No,Moderate,10,Snow,17.545855796079923,26.318783694119887,39.07570927134756,2025-02-13 09:31:17.687227,2025-02-13 10:10:22.229783,High
"Dhanraj Hospital, Karpaga Vinayakar Koil Street, CMWSSB Division 160, Ward 160, Zone 12 Alandur, Chengalpattu, Chennai, Tamil Nadu, 600016, India",13.0017797,80.2033269,"Dhanraj Hospital, Karpaga Vinayakar Koil Street, CMWSSB Division 160, Ward 160, Zone 12 Alandur, Chengalpattu, Chennai, Tamil Nadu, 600016, India",30,9,40,Yes,Low,12,Fog,7.245169380458698,10.867754070688047,22.57802968934874,2025-02-13 09:41:17.687227,2025-02-13 10:03:52.369008,High
"Cu Shah Sankara Netralaya, Station Road, CMWSSB Division 201, St. Thomas Mount Cantonment, Zone 12 Alandur, St.Thomas Mount-Pallavaram Cantonment Board, Kanchipuram, Chennai, Tamil Nadu, 600016, India",13.0012687,80.2001283,"Cu Shah Sankara Netralaya, Station Road, CMWSSB Division 201, St. Thomas Mount Cantonment, Zone 12 Alandur, St.Thomas Mount-Pallavaram Cantonment Board, Kanchipuram, Chennai, Tamil Nadu, 600016, India",26,6,30,Yes,High,67,Fog,7.62123513802617,11.431852707039255,24.412395710812845,2025-02-13 09:26:17.687227,2025-02-13 09:50:42.430970,Medium
"S.S. Hospital, Sowri street, CMWSSB Division 160, Ward 160, Zone 12 Alandur, Chengalpattu, Chennai, Tamil Nadu, 600016, India",13.0036449,80.2030844,"S.S. Hospital, Sowri street, CMWSSB Division 160, Ward 160, Zone 12 Alandur, Chengalpattu, Chennai, Tamil Nadu, 600016, India",18,9,35,Yes,Low,21,Snow,10.459737586670432,15.689606380005648,25.741471076712777,2025-02-13 09:16:17.687227,2025-02-13 09:42:02.175492,Medium
"Government Hospital Alandur, Vishnu Street, CMWSSB Division 160, Ward 160, Zone 12 Alandur, St. Thomas Mount Cantonment, Alandur, Chennai, Tamil Nadu, 600016, India",13.0048164,80.2025432,"Government Hospital Alandur, Vishnu Street, CMWSSB Division 160, Ward 160, Zone 12 Alandur, St. Thomas Mount Cantonment, Alandur, Chennai, Tamil Nadu, 600016, India",18,8,40,Yes,Moderate,14,Fog,10.948021074298271,16.422031611447405,29.941562617513917,2025-02-13 09:02:17.687227,2025-02-13 09:32:14.180984,Low
"Kaanthi Makapperu Hospital, Sowri street, CMWSSB Division 160, Ward 160, Zone 12 Alandur, Chengalpattu, Chennai, Tamil Nadu, 600016, India",13.003406,80.2063632,"Kaanthi Makapperu Hospital, Sowri street, CMWSSB Division 160, Ward 160, Zone 12 Alandur, Chengalpattu, Chennai, Tamil Nadu, 600016, India",13,5,40,No,High,67,Fog,18.871359544784433,28.30703931717665,39.73368875072934,2025-02-13 09:18:17.687227,2025-02-13 09:58:01.708552,Low
"Jaya Sri Hospital, MKN Road, CMWSSB Division 160, Ward 160, Zone 12 Alandur, St.Thomas Mount-Pallavaram Cantonment Board, Chengalpattu, Chennai, Tamil Nadu, 600016, India",13.0027883,80.207025,"Jaya Sri Hospital, MKN Road, CMWSSB Division 160, Ward 160, Zone 12 Alandur, St.Thomas Mount-Pallavaram Cantonment Board, Chengalpattu, Chennai, Tamil Nadu, 600016, India",27,10,35,Yes,High,66,Rain,14.989734171956597,22.484601257934894,34.2807803521376,2025-02-13 09:28:17.687227,2025-02-13 10:02:34.534048,Medium
"G. R. Hospital & Fertility Centre, City Link Road, CMWSSB Division 160, Zone 13 Adyar, Zone 12 Alandur, Alandur, Chennai, Tamil Nadu, 600088, India",12.9952982,80.2068955,"G. R. Hospital & Fertility Centre, City Link Road, CMWSSB Division 160, Zone 13 Adyar, Zone 12 Alandur, Alandur, Chennai, Tamil Nadu, 600088, India",26,6,35,No,Low,27,Clear,5.668989179358658,8.503483769037988,15.475590238575084,2025-02-13 09:02:17.687227,2025-02-13 09:17:46.222641,Medium
"Balaji Hospital (P) Ltd, Anna Salai (Mount Road), Ward 170, Zone 13 Adyar, Alandur, Chennai, Tamil Nadu, 600032, India",13.00738175,80.20608622840193,"Balaji Hospital (P) Ltd, Anna Salai (Mount Road), Ward 170, Zone 13 Adyar, Alandur, Chennai, Tamil Nadu, 600032, India",17,8,25,No,Moderate,14,Snow,13.616376221975953,20.42456433296393,29.198664776935487,2025-02-13 09:29:17.687227,2025-02-13 09:58:29.607114,Medium
"SP Hospital, Mount - Medavakkam Road, CMWSSB Division 163, Ward 163, Zone 12 Alandur, Kanchipuram, Chennai, Tamil Nadu, 600088, India",12.9933638,80.2009134,"SP Hospital, Mount - Medavakkam Road, CMWSSB Division 163, Ward 163, Zone 12 Alandur, Kanchipuram, Chennai, Tamil Nadu, 600088, India",18,6,20,No,Low,22,Clear,5.048787748652205,7.573181622978307,20.812706041640922,2025-02-13 09:29:17.687227,2025-02-13 09:50:06.449589,Low
"Ponmalligai Hospital Pvt Ltd, Kakkan Nagar Main Road, Ward 177, Zone 13 Adyar, Zone 12 Alandur, Kanchipuram, Chennai, Tamil Nadu, 600088, India",12.9925116,80.2061465,"Ponmalligai Hospital Pvt Ltd, Kakkan Nagar Main Road, Ward 177, Zone 13 Adyar, Zone 12 Alandur, Kanchipuram, Chennai, Tamil Nadu, 600088, India",21,5,35,No,High,40,Rain,17.803627811048255,26.70544171657238,41.302179597344924,2025-02-13 09:17:17.687227,2025-02-13 09:58:35.818003,High
"K P Childrens Hospital And Neuro Centre, Mount - Medavakkam Road, CMWSSB Division 163, Ward 163, Zone 12 Alandur, Kanchipuram, Chennai, Tamil Nadu, 600088, India",12.9911179,80.1986745,"K P Childrens Hospital And Neuro Centre, Mount - Medavakkam Road, CMWSSB Division 163, Ward 163, Zone 12 Alandur, Kanchipuram, Chennai, Tamil Nadu, 600088, India",30,8,35,No,High,52,Clear,16.244249723154745,24.366374584732117,38.26786863619513,2025-02-13 08:53:17.687227,2025-02-13 09:31:33.759345,High
"Cantonment General Hospital, Magazine Road, CMWSSB Division 201, St. Thomas Mount Cantonment, Zone 12 Alandur, St.Thomas Mount-Pallavaram Cantonment Board, Alandur, Chennai, Tamil Nadu, 600016, India",13.0096653,80.19501478878405,"Cantonment General Hospital, Magazine Road, CMWSSB Division 201, St. Thomas Mount Cantonment, Zone 12 Alandur, St.Thomas Mount-Pallavaram Cantonment Board, Alandur, Chennai, Tamil Nadu, 600016, India",16,7,35,No,Moderate,25,Snow,16.292517313070206,24.43877596960531,36.13070950072568,2025-02-13 08:51:17.687227,2025-02-13 09:27:25.529797,High
"Magazine Road, CMWSSB Division 201, St. Thomas Mount Cantonment, Zone 12 Alandur, St.Thomas Mount-Pallavaram Cantonment Board, Alandur, Chennai, Tamil Nadu, 600016, India",13.009781,80.1949734,"Magazine Road, CMWSSB Division 201, St. Thomas Mount Cantonment, Zone 12 Alandur, St.Thomas Mount-Pallavaram Cantonment Board, Alandur, Chennai, Tamil Nadu, 600016, India",21,5,20,Yes,Moderate,26,Snow,12.687465490286842,19.031198235430264,27.313103996992794,2025-02-13 08:51:17.687227,2025-02-13 09:18:36.473467,Medium
"Rathna Hospital, St Patricks Church Road, CMWSSB Division 201, St. Thomas Mount Cantonment, Zone 12 Alandur, St. Thomas Mount Cantonment, Chengalpattu, Chennai, Tamil Nadu, 600016, India",13.0087475,80.1937172,"Rathna Hospital, St Patricks Church Road, CMWSSB Division 201, St. Thomas Mount Cantonment, Zone 12 Alandur, St. Thomas Mount Cantonment, Chengalpattu, Chennai, Tamil Nadu, 600016, India",21,7,40,No,Moderate,17,Fog,9.76845826868071,14.652687403021066,23.962648988810454,2025-02-13 09:24:17.687227,2025-02-13 09:48:15.446166,High
"St. Thomas Hospital, Defence Colony Road, CMWSSB Division 201, St. Thomas Mount Cantonment, St.Thomas Mount-Pallavaram Cantonment Board, Kanchipuram, Chennai, Tamil Nadu, 600016, India",13.0122733,80.196428,"St. Thomas Hospital, Defence Colony Road, CMWSSB Division 201, St. Thomas Mount Cantonment, St.Thomas Mount-Pallavaram Cantonment Board, Kanchipuram, Chennai, Tamil Nadu, 600016, India",73,33,20,Yes,High,76,Clear,11.404371266519403,17.106556899779108,29.90312737071962,2025-02-13 09:42:17.687227,2025-02-13 10:12:11.874869,High
"Military Hospital, 2nd Seven Wells Street, CMWSSB Division 158, Ward 158, Zone 12 Alandur, Alandur, Chennai, Tamil Nadu, 600016, India",13.0117736,80.1941708,"Military Hospital, 2nd Seven Wells Street, CMWSSB Division 158, Ward 158, Zone 12 Alandur, Alandur, Chennai, Tamil Nadu, 600016, India",23,6,25,Yes,Low,12,Clear,12.353538671691716,18.530308007537574,29.396590094167944,2025-02-13 08:53:17.687227,2025-02-13 09:22:41.482633,Medium
